     3.02           OBSERVATION DATA    G                   RINEX VERSION / TYPE
G = GPS  R = GLONASS  E = GALILEO  S = GEO  M = MIXED       COMMENT             
GNSS-SDR            kannab              20201201 093000 UTC PGM / RUN BY / DATE 
GPS OBSERVATION DATA FILE GENERATED BY GNSS-SDR             COMMENT             
GNSS-SDR VERSION 0.0.13                                     COMMENT             
See https://gnss-sdr.org                                    COMMENT             
DEFAULT MARKER NAME                                         MARKER NAME         
kannab              CTTC                                    OBSERVER / AGENCY   
GNSS-SDR            Software Receiver   0.0.13              REC # / TYPE / VERS 
Antenna number      Antenna type                            ANT # / TYPE        
        0.0000        0.0000        0.0000                  APPROX POSITION XYZ 
        0.0000        0.0000        0.0000                  ANTENNA: DELTA H/E/N
G    4 C1C L1C D1C S1C                                      SYS / # / OBS TYPES 
DBHZ                                                        SIGNAL STRENGTH UNIT
  2020    12    01    09    30   18.1200000     GPS         TIME OF FIRST OBS   
                                                            END OF HEADER       
> 2020 12 01 09 30 18.2000000  0  4                                             
G07  28914949.531 7 151949132.476 7      4010.113 7        45.060               
G09  26345023.610 7 138444047.021 7      2410.093 7        45.340               
G22  28019719.039 6 147244633.493 6     -2121.954 6        41.255               
G06  27372597.652 8 143843992.743 8      1439.536 8        48.100               
> 2020 12 01 09 30 18.3000000  0  4                                             
G07  28914866.091 7 151948731.465 7      4009.393 7        44.665               
G09  26344972.335 7 138443805.877 7      2413.043 7        45.373               
G22  28019754.661 6 147244845.296 6     -2115.481 6        41.652               
G06  27372563.201 7 143843848.771 7      1439.706 7        47.989               
> 2020 12 01 09 30 18.4000000  0  4                                             
G07  28914783.090 7 151948330.480 7      4010.216 7        44.437               
G09  26344918.915 7 138443564.535 7      2412.335 7        43.719               
G22  28019790.113 6 147245057.139 6     -2121.067 6        41.913               
G06  27372527.150 7 143843704.831 7      1437.871 7        47.517               
> 2020 12 01 09 30 18.5000000  0  4                                             
G07  28914700.713 7 151947929.516 7      4008.319 7        44.137               
G09  26344866.872 7 138443323.504 7      2409.244 7        43.936               
G22  28019824.082 7 147245269.034 7     -2122.348 7        42.110               
G06  27372492.180 7 143843560.915 7      1441.433 7        47.398               
> 2020 12 01 09 30 18.6000000  0  4                                             
G07  28914622.626 7 151947528.528 7      4010.401 7        44.780               
G09  26344815.516 7 138443082.411 7      2410.647 7        43.849               
G22  28019861.580 7 147245480.878 7     -2119.327 7        42.256               
G06  27372456.425 7 143843416.975 7      1439.933 7        47.464               
> 2020 12 01 09 30 18.7000000  0  4                                             
G07  28914543.555 7 151947127.506 7      4013.551 7        45.219               
G09  26344761.757 7 138442841.394 7      2409.015 7        42.949               
G22  28019898.631 7 147245692.702 7     -2121.276 7        42.376               
G06  27372421.446 7 143843273.101 7      1437.809 7        47.134               
> 2020 12 01 09 30 18.8000000  0  4                                             
G07  28914463.109 7 151946726.457 7      4013.835 7        45.349               
G09  26344708.177 7 138442600.400 7      2409.607 7        42.583               
G22  28019931.519 7 147245904.513 7     -2117.639 7        42.199               
G06  27372390.541 7 143843129.202 7      1439.319 7        47.181               
> 2020 12 01 09 30 18.9000000  0  4                                             
G07  28914383.315 7 151946325.402 7      4010.875 7        45.243               
G09  26344658.546 7 138442359.266 7      2409.729 7        43.061               
G22  28019968.803 7 147246116.296 7     -2116.266 7        42.333               
G06  27372359.699 7 143842985.209 7      1439.952 7        47.575               
> 2020 12 01 09 30 19.0000000  0  4                                             
G07  28914303.932 7 151945924.427 7      4011.020 7        45.347               
G09  26344612.497 7 138442118.245 7      2406.865 7        43.769               
G22  28020004.729 7 147246328.155 7     -2118.571 7        42.702               
G06  27372328.241 7 143842841.374 7      1437.387 7        47.640               
> 2020 12 01 09 30 19.1000000  0  4                                             
G07  28914223.423 7 151945523.498 7      4009.178 7        45.829               
G09  26344563.635 7 138441877.378 7      2408.194 7        44.115               
G22  28020041.369 7 147246540.054 7     -2118.890 7        43.154               
G06  27372297.158 7 143842697.555 7      1437.998 7        47.887               
> 2020 12 01 09 30 19.2000000  0  4                                             
G07  28914143.102 7 151945122.530 7      4012.501 7        46.328               
G09  26344513.878 7 138441636.330 7      2411.422 7        44.607               
G22  28020077.304 7 147246751.911 7     -2119.684 7        43.526               
G06  27372262.528 7 143842553.653 7      1440.301 7        47.840               
> 2020 12 01 09 30 19.3000000  0  4                                             
G07  28914061.655 7 151944721.549 7      4011.664 7        46.626               
G09  26344463.568 7 138441395.328 7      2406.033 7        44.611               
G22  28020111.693 7 147246963.798 7     -2118.218 7        43.572               
G06  27372229.282 7 143842409.813 7      1435.827 7        47.782               
> 2020 12 01 09 30 19.4000000  0  4                                             
G07  28913979.689 7 151944320.609 7      4006.752 7        46.609               
G09  26344411.534 7 138441154.395 7      2410.213 7        44.643               
G22  28020148.047 7 147247175.744 7     -2122.093 7        43.480               
G06  27372196.082 7 143842266.053 7      1437.126 7        47.931               
> 2020 12 01 09 30 19.5000000  0  4                                             
G07  28913895.803 7 151943919.666 7      4009.429 7        46.086               
G09  26344359.740 7 138440913.423 7      2407.946 7        44.590               
G22  28020179.809 7 147247387.644 7     -2115.637 7        43.452               
G06  27372161.407 7 143842122.252 7      1439.279 7        47.310               
> 2020 12 01 09 30 19.6000000  0  4                                             
G07  28913811.229 7 151943518.839 7      3999.510 7        44.927               
G09  26344308.590 7 138440672.473 7      2405.195 7        44.915               
G22  28020211.000 7 147247599.564 7     -2122.752 7        43.337               
G06  27372127.831 7 143841978.417 7      1438.829 7        47.022               
> 2020 12 01 09 30 19.7000000  0  4                                             
G07  28913727.575 7 151943117.932 7      4007.975 7        44.308               
G09  26344255.582 7 138440431.542 7      2405.446 7        44.694               
G22  28020243.745 7 147247811.473 7     -2121.052 7        43.190               
G06  27372096.453 7 143841834.621 7      1438.318 7        47.262               
> 2020 12 01 09 30 19.8000000  0  4                                             
G07  28913646.370 7 151942716.977 7      4011.436 7        44.438               
G09  26344205.307 7 138440190.634 7      2407.397 7        44.513               
G22  28020280.582 7 147248023.389 7     -2119.142 7        43.273               
G06  27372064.057 7 143841690.854 7      1436.195 7        47.046               
> 2020 12 01 09 30 19.9000000  0  4                                             
G07  28913564.762 7 151942316.077 7      4009.412 7        44.737               
G09  26344157.177 7 138439949.650 7      2410.315 7        44.745               
G22  28020317.240 7 147248235.339 7     -2120.238 7        43.377               
G06  27372031.910 7 143841547.066 7      1436.510 7        47.033               
> 2020 12 01 09 30 20.0000000  0  4                                             
G07  28913482.377 7 151941915.249 7      4011.357 7        44.918               
G09  26344105.875 7 138439708.764 7      2406.728 7        45.205               
G22  28020350.610 7 147248447.327 7     -2122.082 7        43.222               
G06  27372001.149 7 143841403.371 7      1438.003 7        47.388               
> 2020 12 01 09 30 20.1000000  0  4                                             
G07  28913401.225 7 151941514.420 7      4010.294 7        44.935               
G09  26344054.627 7 138439467.977 7      2408.644 7        44.901               
G22  28020381.908 7 147248659.345 7     -2123.059 7        43.214               
G06  27371968.690 7 143841259.716 7      1434.810 7        47.622               
> 2020 12 01 09 30 20.2000000  0  4                                             
G07  28913318.464 7 151941113.539 7      4007.896 7        45.202               
G09  26344004.593 7 138439227.107 7      2409.853 7        44.894               
G22  28020415.591 7 147248871.342 7     -2121.475 7        43.272               
G06  27371937.606 7 143841115.998 7      1437.385 7        47.663               
> 2020 12 01 09 30 20.3000000  0  4                                             
G07  28913238.197 7 151940712.680 7      4010.189 7        45.138               
G09  26343952.630 7 138438986.164 7      2411.284 7        44.829               
G22  28020451.311 7 147249083.382 7     -2119.758 7        43.063               
G06  27371904.942 7 143840972.359 7      1435.386 7        47.453               
> 2020 12 01 09 30 20.4000000  0  4                                             
G07  28913156.222 7 151940311.895 7      4009.271 7        45.079               
G09  26343900.453 7 138438745.369 7      2406.186 7        44.566               
G22  28020488.631 7 147249295.405 7     -2120.979 7        43.251               
G06  27371871.938 7 143840828.698 7      1436.860 7        47.616               
> 2020 12 01 09 30 20.5000000  0  4                                             
G07  28913075.767 7 151939911.101 7      4005.982 7        45.181               
G09  26343849.303 7 138438504.587 7      2408.063 7        44.518               
G22  28020527.156 7 147249507.421 7     -2120.957 7        43.845               
G06  27371838.666 7 143840685.075 7      1437.482 7        47.480               
> 2020 12 01 09 30 20.6000000  0  4                                             
G07  28912993.150 7 151939510.315 7      4010.531 7        45.165               
G09  26343797.911 7 138438263.842 7      2407.276 7        44.671               
G22  28020563.824 7 147249719.495 7     -2120.319 7        44.147               
G06  27371803.803 7 143840541.472 7      1435.519 7        47.069               
> 2020 12 01 09 30 20.7000000  0  4                                             
G07  28912910.979 7 151939109.458 7      4008.872 7        45.287               
G09  26343744.277 7 138438023.026 7      2407.205 7        44.459               
G22  28020598.052 7 147249931.550 7     -2124.920 7        44.148               
G06  27371770.370 7 143840397.841 7      1434.392 7        46.726               
> 2020 12 01 09 30 20.8000000  0  4                                             
G07  28912831.069 7 151938708.681 7      4005.632 7        45.694               
G09  26343693.369 7 138437782.226 7      2411.407 7        43.874               
G22  28020632.369 7 147250143.609 7     -2119.170 7        43.651               
G06  27371737.420 7 143840254.239 7      1438.106 7        46.796               
> 2020 12 01 09 30 20.9000000  0  4                                             
G07  28912750.033 7 151938307.921 7      4007.635 7        46.100               
G09  26343637.841 7 138437541.335 7      2407.855 7        43.827               
G22  28020664.891 7 147250355.675 7     -2117.671 7        43.228               
G06  27371705.863 7 143840110.616 7      1434.957 7        46.822               
> 2020 12 01 09 30 21.0000000  0  4                                             
G07  28912666.692 7 151937907.204 7      4010.087 7        45.906               
G09  26343583.876 7 138437300.648 7      2408.660 7        43.634               
G22  28020697.466 7 147250567.779 7     -2120.411 7        43.025               
G06  27371673.136 7 143839967.050 7      1433.198 7        47.124               
> 2020 12 01 09 30 21.1000000  0  4                                             
G07  28912579.723 7 151937506.394 7      4005.551 7        45.007               
G09  26343530.198 7 138437059.826 7      2405.386 7        43.477               
G22  28020732.588 7 147250779.933 7     -2124.108 7        43.006               
G06  27371640.927 7 143839823.580 7      1435.009 7        47.234               
> 2020 12 01 09 30 21.2000000  0  4                                             
G07  28912498.973 7 151937105.675 7      4009.002 7        44.654               
G09  26343479.360 7 138436819.086 7      2403.870 7        43.376               
G22  28020768.469 7 147250992.083 7     -2119.727 7        42.686               
G06  27371607.324 7 143839680.028 7      1435.309 7        47.311               
> 2020 12 01 09 30 21.3000000  0  4                                             
G07  28912419.742 7 151936705.010 7      4007.240 7        45.321               
G09  26343428.898 7 138436578.495 7      2410.669 7        43.924               
G22  28020803.679 7 147251204.206 7     -2120.838 7        42.935               
G06  27371574.517 7 143839536.540 7      1435.230 7        47.246               
> 2020 12 01 09 30 21.4000000  0  4                                             
G07  28912340.948 7 151936304.363 7      4007.267 7        45.588               
G09  26343378.472 7 138436337.747 7      2408.561 7        43.959               
G22  28020837.300 7 147251416.366 7     -2122.259 7        42.811               
G06  27371540.655 7 143839393.053 7      1434.706 7        47.254               
> 2020 12 01 09 30 21.5000000  0  4                                             
G07  28912261.190 7 151935903.705 7      4004.746 7        45.885               
G09  26343328.367 7 138436097.087 7      2404.633 7        44.064               
G22  28020870.411 7 147251628.551 7     -2120.926 7        42.638               
G06  27371506.677 7 143839249.561 7      1432.819 7        46.869               
> 2020 12 01 09 30 21.6000000  0  4                                             
G07  28912178.903 7 151935502.980 7      4007.178 7        45.513               
G09  26343281.765 7 138435856.545 7      2408.948 7        43.854               
G22  28020906.257 7 147251840.748 7     -2119.439 7        42.595               
G06  27371474.897 7 143839106.171 7      1432.881 7        46.772               
> 2020 12 01 09 30 21.7000000  0  4                                             
G07  28912097.224 7 151935102.285 7      4005.012 7        45.161               
G09  26343234.349 7 138435615.715 7      2409.421 7        44.521               
G22  28020942.415 7 147252052.927 7     -2123.186 7        42.550               
G06  27371441.384 7 143838962.728 7      1433.494 7        46.559               
> 2020 12 01 09 30 21.8000000  0  4                                             
G07  28912014.812 7 151934701.623 7      4008.263 7        45.170               
G09  26343181.787 7 138435374.999 7      2407.618 7        44.927               
G22  28020978.036 7 147252265.134 7     -2121.055 7        42.591               
G06  27371405.637 7 143838819.264 7      1436.024 7        46.336               
> 2020 12 01 09 30 21.9000000  0  4                                             
G07  28911932.427 7 151934300.962 7      4005.551 7        45.294               
G09  26343128.252 7 138435134.383 7      2412.238 7        44.003               
G22  28021013.641 7 147252477.307 7     -2126.562 7        42.671               
G06  27371373.580 7 143838675.832 7      1433.473 7        46.568               
> 2020 12 01 09 30 22.0000000  0  4                                             
G07  28911847.147 7 151933900.273 7      4009.683 7        45.145               
G09  26343074.314 7 138434893.727 7      2405.004 7        44.102               
G22  28021049.093 7 147252689.470 7     -2122.740 7        42.812               
G06  27371341.996 7 143838532.471 7      1433.804 7        46.861               
> 2020 12 01 09 30 22.1000000  0  4                                             
G07  28911763.252 7 151933499.559 7      4005.798 7        44.515               
G09  26343021.886 7 138434653.092 7      2408.287 7        44.392               
G22  28021083.848 7 147252901.675 7     -2124.122 7        42.877               
G06  27371307.143 7 143838389.041 7      1434.676 7        46.681               
> 2020 12 01 09 30 22.2000000  0  4                                             
G07  28911683.261 7 151933098.951 7      4007.528 7        44.567               
G09  26342971.683 7 138434412.419 7      2406.522 7        44.579               
G22  28021117.468 7 147253113.948 7     -2119.940 7        42.540               
G06  27371273.227 7 143838245.659 7      1433.724 7        46.650               
> 2020 12 01 09 30 22.3000000  0  4                                             
G07  28911603.538 7 151932698.412 7      4004.433 7        45.220               
G09  26342918.282 7 138434171.792 7      2405.308 7        44.497               
G22  28021153.903 7 147253326.233 7     -2128.217 7        42.562               
G06  27371241.134 7 143838102.291 7      1433.784 7        46.380               
> 2020 12 01 09 30 22.4000000  0  4                                             
G07  28911523.047 7 151932297.887 7      4005.430 7        45.263               
G09  26342865.479 7 138433931.282 7      2404.582 7        43.728               
G22  28021190.615 7 147253538.516 7     -2123.835 7        42.724               
G06  27371209.542 7 143837958.939 7      1434.124 7        46.764               
> 2020 12 01 09 30 22.5000000  0  4                                             
G07  28911443.736 7 151931897.308 7      4004.919 7        45.298               
G09  26342816.598 7 138433690.823 7      2404.971 7        43.409               
G22  28021227.542 7 147253750.821 7     -2120.953 7        42.753               
G06  27371178.182 7 143837815.695 7      1431.203 7        46.979               
> 2020 12 01 09 30 22.6000000  0  4                                             
G07  28911361.833 7 151931496.721 7      4006.876 7        45.591               
G09  26342767.816 7 138433450.203 7      2405.467 7        43.516               
G22  28021262.011 7 147253963.123 7     -2122.893 7        42.634               
G06  27371144.981 7 143837672.434 7      1431.525 7        46.831               
> 2020 12 01 09 30 22.7000000  0  4                                             
G07  28911282.092 7 151931096.179 7      4005.501 7        46.366               
G09  26342717.389 7 138433209.670 7      2403.644 7        43.958               
G22  28021295.775 7 147254175.465 7     -2121.586 7        42.707               
G06  27371108.913 7 143837529.124 7      1433.231 7        46.343               
> 2020 12 01 09 30 22.8000000  0  4                                             
G07  28911201.342 7 151930695.569 7      4006.202 7        46.940               
G09  26342665.498 7 138432969.170 7      2405.104 7        44.161               
G22  28021330.467 7 147254387.749 7     -2122.342 7        42.657               
G06  27371076.998 7 143837385.778 7      1434.826 7        46.074               
> 2020 12 01 09 30 22.9000000  0  4                                             
G07  28911119.627 7 151930294.947 7      4004.798 7        47.367               
G09  26342608.755 7 138432728.584 7      2405.118 7        43.665               
G22  28021365.392 7 147254600.029 7     -2124.895 7        42.231               
G06  27371047.935 7 143837242.542 7      1431.887 7        46.425               
> 2020 12 01 09 30 23.0000000  0  4                                             
G07  28911038.064 7 151929894.435 7      4003.023 7        47.120               
G09  26342553.486 7 138432488.087 7      2403.854 7        42.997               
G22  28021399.906 7 147254812.383 7     -2123.498 7        42.229               
G06  27371012.313 7 143837099.334 7      1433.552 7        46.307               
> 2020 12 01 09 30 23.1000000  0  4                                             
G07  28910955.250 7 151929493.955 7      4005.270 7        47.037               
G09  26342498.395 7 138432247.610 7      2404.477 7        42.089               
G22  28021434.715 7 147255024.741 7     -2125.804 7        42.393               
G06  27370975.601 7 143836956.030 7      1432.724 7        45.673               
> 2020 12 01 09 30 23.2000000  0  4                                             
G07  28910872.776 7 151929093.449 7      4005.214 7        46.832               
G09  26342442.573 6 138432007.001 6      2408.752 6        41.530               
G22  28021469.872 7 147255237.085 7     -2122.315 7        42.769               
G06  27370946.349 7 143836812.866 7      1432.342 7        45.785               
> 2020 12 01 09 30 23.3000000  0  4                                             
G07  28910788.943 7 151928692.947 7      4006.201 7        46.506               
G09  26342395.255 6 138431766.508 6      2401.069 6        41.994               
G22  28021503.305 7 147255449.434 7     -2124.032 7        43.140               
G06  27370916.812 7 143836669.693 7      1429.253 7        46.044               
> 2020 12 01 09 30 23.4000000  0  4                                             
G07  28910706.335 7 151928292.373 7      4004.961 7        46.054               
G09  26342349.002 7 138431526.021 7      2403.982 7        42.790               
G22  28021538.909 7 147255661.796 7     -2123.125 7        42.799               
G06  27370886.211 7 143836526.453 7      1432.953 7        45.981               
> 2020 12 01 09 30 23.5000000  0  4                                             
G07  28910622.207 7 151927891.834 7      4008.301 7        45.862               
G09  26342300.264 7 138431285.483 7      2403.394 7        43.452               
G22  28021572.584 7 147255874.133 7     -2122.653 7        42.821               
G06  27370856.102 7 143836383.170 7      1435.164 7        46.155               
> 2020 12 01 09 30 23.6000000  0  4                                             
G07  28910539.179 7 151927491.296 7      4004.986 7        45.616               
G09  26342248.980 7 138431044.962 7      2401.879 7        43.311               
G22  28021605.195 7 147256086.469 7     -2124.683 7        43.098               
G06  27370823.750 7 143836239.967 7      1433.011 7        46.351               
> 2020 12 01 09 30 23.7000000  0  4                                             
G07  28910455.409 7 151927090.728 7      4001.913 7        45.678               
G09  26342197.865 7 138430804.394 7      2408.152 7        43.219               
G22  28021638.074 7 147256298.805 7     -2124.998 7        43.421               
G06  27370790.040 7 143836096.752 7      1435.265 7        46.327               
> 2020 12 01 09 30 23.8000000  0  4                                             
G07  28910372.541 7 151926690.238 7      4000.304 7        45.240               
G09  26342147.153 7 138430563.916 7      2402.916 7        43.100               
G22  28021671.176 7 147256511.185 7     -2124.068 7        43.070               
G06  27370758.447 7 143835953.556 7      1432.366 7        46.490               
> 2020 12 01 09 30 23.9000000  0  4                                             
G07  28910288.521 7 151926289.770 7      4004.872 7        44.734               
G09  26342098.103 7 138430323.454 7      2402.275 7        43.441               
G22  28021705.136 7 147256723.554 7     -2123.267 7        42.937               
G06  27370728.678 7 143835810.401 7      1430.807 7        46.879               
> 2020 12 01 09 30 24.0000000  0  4                                             
G07  28910208.879 7 151925889.214 7      4001.914 7        44.445               
G09  26342049.535 7 138430082.980 7      2407.193 7        43.874               
G22  28021743.858 7 147256935.916 7     -2126.527 7        43.235               
G06  27370694.351 7 143835667.223 7      1432.824 7        46.692               
> 2020 12 01 09 30 24.1000000  0  4                                             
G07  28910128.567 7 151925488.668 7      4002.119 7        44.388               
G09  26341998.313 7 138429842.498 7      2402.937 7        44.487               
G22  28021779.596 7 147257148.280 7     -2127.320 7        43.133               
G06  27370659.516 7 143835524.030 7      1431.056 7        46.474               
> 2020 12 01 09 30 24.2000000  0  4                                             
G07  28910047.397 7 151925088.165 7      4005.561 7        44.332               
G09  26341946.957 7 138429602.111 7      2403.742 7        44.813               
G22  28021817.103 7 147257360.696 7     -2123.581 7        43.343               
G06  27370626.681 7 143835380.905 7      1429.098 7        46.449               
> 2020 12 01 09 30 24.3000000  0  4                                             
G07  28909966.503 7 151924687.706 7      4009.267 7        44.410               
G09  26341893.654 7 138429361.686 7      2404.348 7        44.813               
G22  28021853.815 7 147257573.143 7     -2124.315 7        43.746               
G06  27370592.015 7 143835237.844 7      1431.385 7        46.384               
> 2020 12 01 09 30 24.4000000  0  4                                             
G07  28909884.922 7 151924287.276 7      4004.803 7        44.324               
G09  26341839.332 7 138429121.288 7      2401.226 7        44.490               
G22  28021888.588 7 147257785.595 7     -2123.202 7        44.084               
G06  27370559.521 7 143835094.793 7      1429.274 7        46.308               
> 2020 12 01 09 30 24.5000000  0  4                                             
G07  28909801.876 7 151923886.967 7      4006.257 7        44.013               
G09  26341786.672 7 138428880.991 7      2401.610 7        44.295               
G22  28021925.532 7 147257998.107 7     -2126.491 7        44.230               
G06  27370526.758 7 143834951.730 7      1430.473 7        46.349               
> 2020 12 01 09 30 24.6000000  0  4                                             
G07  28909718.410 7 151923486.556 7      4007.677 7        43.992               
G09  26341736.085 7 138428640.576 7      2406.544 7        44.079               
G22  28021960.449 7 147258210.598 7     -2124.475 7        43.919               
G06  27370494.209 7 143834808.679 7      1433.136 7        46.456               
> 2020 12 01 09 30 24.7000000  0  4                                             
G07  28909637.678 7 151923086.068 7      4002.824 7        43.873               
G09  26341685.087 7 138428400.154 7      2405.356 7        44.433               
G22  28021996.535 7 147258423.019 7     -2123.370 7        43.762               
G06  27370462.688 7 143834665.597 7      1431.761 7        46.746               
> 2020 12 01 09 30 24.8000000  0  4                                             
G07  28909554.828 7 151922685.584 7      4002.601 7        43.787               
G09  26341635.223 7 138428159.722 7      2405.542 7        44.539               
G22  28022029.235 7 147258635.415 7     -2129.429 7        43.690               
G06  27370432.373 7 143834522.494 7      1429.746 7        47.047               
> 2020 12 01 09 30 24.9000000  0  4                                             
G07  28909474.855 7 151922285.106 7      4003.981 7        43.728               
G09  26341580.964 7 138427919.109 7      2411.317 7        43.987               
G22  28022063.812 7 147258847.843 7     -2125.763 7        43.782               
G06  27370400.808 7 143834379.401 7      1431.781 7        47.747               
> 2020 12 01 09 30 25.0000000  0  4                                             
G07  28909394.007 7 151921884.709 7      4007.027 7        43.578               
G09  26341524.998 7 138427678.947 7      2399.289 7        42.797               
G22  28022098.049 7 147259060.313 7     -2126.240 7        43.732               
G06  27370366.857 8 143834236.338 8      1429.350 8        48.134               
> 2020 12 01 09 30 25.1000000  0  4                                             
G07  28909313.257 7 151921484.269 7      4000.822 7        44.092               
G09  26341474.000 7 138427438.456 7      2405.158 7        42.771               
G22  28022134.564 7 147259272.776 7     -2126.793 7        43.871               
G06  27370332.700 8 143834093.280 8      1433.071 8        48.137               
> 2020 12 01 09 30 25.2000000  0  4                                             
G07  28909233.748 7 151921083.815 7      4004.684 7        44.350               
G09  26341423.386 7 138427198.067 7      2406.091 7        42.889               
G22  28022169.999 7 147259485.234 7     -2123.529 7        43.816               
G06  27370300.009 8 143833950.250 8      1429.923 8        48.306               
> 2020 12 01 09 30 25.3000000  0  4                                             
G07  28909153.347 7 151920683.356 7      4001.665 7        44.710               
G09  26341374.577 7 138426957.671 7      2405.647 7        43.366               
G22  28022205.388 7 147259697.675 7     -2123.669 7        43.749               
G06  27370266.040 8 143833807.215 8      1430.383 8        48.213               
> 2020 12 01 09 30 25.4000000  0  4                                             
G07  28909072.731 7 151920282.962 7      4003.677 7        44.715               
G09  26341324.249 7 138426717.276 7      2399.775 7        43.694               
G22  28022240.831 7 147259910.130 7     -2125.161 7        43.741               
G06  27370231.034 7 143833664.212 7      1429.217 7        47.772               
> 2020 12 01 09 30 25.5000000  0  4                                             
G07  28908990.524 7 151919882.557 7      4003.604 7        44.154               
G09  26341274.850 7 138426476.911 7      2402.885 7        43.727               
G22  28022274.175 7 147260122.556 7     -2125.796 7        43.781               
G06  27370197.548 7 143833521.158 7      1429.919 7        47.354               
> 2020 12 01 09 30 25.6000000  0  4                                             
G07  28908908.854 7 151919482.129 7      4005.407 7        44.109               
G09  26341223.074 7 138426236.399 7      2406.680 7        44.087               
G22  28022307.608 7 147260335.021 7     -2122.905 7        43.854               
G06  27370163.463 7 143833378.118 7      1429.879 7        47.252               
> 2020 12 01 09 30 25.7000000  0  4                                             
G07  28908828.801 7 151919081.692 7      4005.788 7        44.732               
G09  26341171.969 7 138425996.042 7      2404.414 7        43.975               
G22  28022340.648 7 147260547.496 7     -2123.754 7        43.916               
G06  27370130.458 7 143833235.148 7      1430.377 7        47.265               
> 2020 12 01 09 30 25.8000000  0  4                                             
G07  28908749.444 7 151918681.215 7      4005.700 7        45.371               
G09  26341120.238 7 138425755.691 7      2403.029 7        43.690               
G22  28022375.001 7 147260759.965 7     -2120.316 7        43.735               
G06  27370099.054 7 143833092.113 7      1430.966 7        47.334               
> 2020 12 01 09 30 25.9000000  0  4                                             
G07  28908668.489 7 151918280.733 7      4002.309 7        45.478               
G09  26341067.882 7 138425515.263 7      2406.062 7        43.609               
G22  28022407.674 7 147260972.395 7     -2126.591 7        43.904               
G06  27370067.193 7 143832949.049 7      1432.872 7        47.210               
> 2020 12 01 09 30 26.0000000  0  4                                             
G07  28908586.595 7 151917880.277 7      4001.894 7        45.508               
G09  26341017.947 7 138425274.882 7      2401.148 7        43.480               
G22  28022444.127 7 147261184.838 7     -2125.204 7        43.740               
G06  27370033.876 7 143832806.083 7      1428.192 7        46.884               
> 2020 12 01 09 30 26.1000000  0  4                                             
G07  28908502.110 7 151917479.837 7      4002.209 7        45.430               
G09  26340966.466 7 138425034.416 7      2405.063 7        43.388               
G22  28022478.436 7 147261397.302 7     -2121.841 7        43.541               
G06  27370001.140 7 143832663.079 7      1431.702 7        46.866               
> 2020 12 01 09 30 26.2000000  0  4                                             
G07  28908418.322 7 151917079.367 7      4002.224 7        45.495               
G09  26340914.986 7 138424794.038 7      2400.784 7        43.357               
G22  28022515.621 7 147261609.763 7     -2123.098 7        43.598               
G06  27369971.076 7 143832520.014 7      1433.092 7        47.160               
> 2020 12 01 09 30 26.3000000  0  4                                             
G07  28908333.427 7 151916678.880 7      4006.961 7        45.267               
G09  26340866.998 7 138424553.659 7      2403.462 7        43.665               
G22  28022552.360 7 147261822.175 7     -2126.017 7        43.789               
G06  27369939.099 7 143832376.991 7      1430.327 7        47.409               
> 2020 12 01 09 30 26.4000000  0  4                                             
G07  28908250.675 7 151916278.405 7      4006.412 7        44.779               
G09  26340816.608 7 138424313.230 7      2407.775 7        43.839               
G22  28022588.482 7 147262034.592 7     -2123.232 7        43.950               
G06  27369905.943 7 143832233.972 7      1431.651 7        47.515               
> 2020 12 01 09 30 26.5000000  0  4                                             
G07  28908168.022 7 151915877.991 7      4003.156 7        44.414               
G09  26340765.994 7 138424072.885 7      2405.959 7        44.259               
G22  28022623.488 7 147262247.051 7     -2125.652 7        44.178               
G06  27369873.019 7 143832091.003 7      1429.863 7        47.567               
> 2020 12 01 09 30 26.6000000  0  4                                             
G07  28908087.236 7 151915477.521 7      4004.197 7        44.531               
G09  26340715.353 7 138423832.409 7      2403.038 7        44.251               
G22  28022656.644 7 147262459.471 7     -2124.239 7        44.354               
G06  27369840.864 7 143831947.953 7      1430.768 7        47.543               
> 2020 12 01 09 30 26.7000000  0  4                                             
G07  28908006.763 7 151915077.013 7      4006.413 7        44.754               
G09  26340659.718 7 138423591.999 7      2406.648 7        43.863               
G22  28022692.230 7 147262671.855 7     -2123.960 7        44.542               
G06  27369807.002 7 143831804.901 7      1431.559 7        47.004               
> 2020 12 01 09 30 26.8000000  0  4                                             
G07  28907924.753 7 151914676.554 7      4003.970 7        45.024               
G09  26340605.691 7 138423351.614 7      2408.945 7        43.464               
G22  28022726.922 7 147262884.319 7     -2123.816 7        44.654               
G06  27369774.910 7 143831661.911 7      1430.754 7        46.781               
> 2020 12 01 09 30 26.9000000  0  4                                             
G07  28907844.441 7 151914276.077 7      4001.246 7        45.288               
G09  26340557.087 7 138423111.178 7      2402.871 7        43.510               
G22  28022761.669 7 147263096.768 7     -2122.567 7        44.367               
G06  27369741.763 7 143831518.951 7      1428.738 7        47.084               
> 2020 12 01 09 30 27.0000000  0  4                                             
G07  28907762.538 7 151913875.661 7      4007.657 7        45.369               
G09  26340508.242 7 138422870.804 7      2403.608 7        43.985               
G22  28022794.700 7 147263309.277 7     -2124.355 7        43.739               
G06  27369708.222 7 143831375.962 7      1428.053 7        46.848               
> 2020 12 01 09 30 27.1000000  0  4                                             
G07  28907681.985 7 151913475.234 7      4002.590 7        45.373               
G09  26340458.798 7 138422630.516 7      2404.196 7        44.443               
G22  28022828.034 7 147263521.788 7     -2128.226 7        43.412               
G06  27369676.353 7 143831233.045 7      1431.325 7        46.998               
> 2020 12 01 09 30 27.2000000  0  4                                             
G07  28907599.063 7 151913074.788 7      4005.004 7        45.424               
G09  26340407.738 7 138422390.131 7      2399.737 7        44.342               
G22  28022862.236 7 147263734.262 7     -2124.065 7        43.191               
G06  27369643.474 7 143831090.121 7      1429.232 7        46.762               
> 2020 12 01 09 30 27.3000000  0  4                                             
G07  28907516.526 7 151912674.437 7      4006.833 7        45.491               
G09  26340354.836 7 138422149.737 7      2404.276 7        43.890               
G22  28022898.027 7 147263946.804 7     -2126.839 7        43.046               
G06  27369608.728 7 143830947.255 7      1429.044 7        46.580               
> 2020 12 01 09 30 27.4000000  0  4                                             
G07  28907436.125 7 151912274.023 7      4001.915 7        45.468               
G09  26340303.052 7 138421909.392 7      2401.332 7        43.965               
G22  28022934.284 7 147264159.302 7     -2126.749 7        43.122               
G06  27369574.321 7 143830804.315 7      1431.153 7        46.740               
> 2020 12 01 09 30 27.5000000  0  4                                             
G07  28907353.284 7 151911873.545 7      3999.226 7        45.340               
G09  26340252.929 7 138421668.979 7      2403.757 7        43.908               
G22  28022969.307 7 147264371.717 7     -2121.205 7        43.285               
G06  27369542.183 7 143830661.310 7      1430.051 7        46.786               
> 2020 12 01 09 30 27.6000000  0  4                                             
G07  28907269.594 7 151911473.038 7      4003.022 7        44.956               
G09  26340201.672 7 138421428.578 7      2402.808 7        44.043               
G22  28023006.751 7 147264584.141 7     -2125.544 7        43.429               
G06  27369511.154 7 143830518.347 7      1429.465 7        47.246               
> 2020 12 01 09 30 27.7000000  0  4                                             
G07  28907189.997 7 151911072.521 7      4002.277 7        44.999               
G09  26340151.969 7 138421188.144 7      2407.280 7        44.194               
G22  28023041.533 7 147264796.605 7     -2124.705 7        43.374               
G06  27369479.454 7 143830375.395 7      1429.202 7        47.741               
> 2020 12 01 09 30 27.8000000  0  4                                             
G07  28907110.801 7 151910672.099 7      4001.320 7        45.616               
G09  26340102.571 7 138420947.816 7      2403.411 7        44.326               
G22  28023075.225 7 147265009.069 7     -2124.657 7        43.290               
G06  27369447.245 7 143830232.454 7      1427.958 7        47.653               
> 2020 12 01 09 30 27.9000000  0  4                                             
G07  28907030.105 7 151910271.697 7      4005.488 7        45.842               
G09  26340052.761 7 138420707.373 7      2404.998 7        44.176               
G22  28023111.258 7 147265221.492 7     -2127.234 7        43.310               
G06  27369415.939 7 143830089.474 7      1430.437 7        47.569               
> 2020 12 01 09 30 28.0000000  0  4                                             
G07  28906948.443 7 151909871.257 7      4001.177 7        45.412               
G09  26340002.182 7 138420466.991 7      2405.993 7        44.200               
G22  28023147.622 7 147265433.932 7     -2125.121 7        43.744               
G06  27369383.891 8 143829946.530 8      1427.771 8        48.002               
> 2020 12 01 09 30 28.1000000  0  4                                             
G07  28906866.273 7 151909470.809 7      4002.086 7        45.019               
G09  26339953.212 7 138420226.665 7      2400.865 7        44.535               
G22  28023183.985 7 147265646.492 7     -2130.156 7        43.811               
G06  27369352.611 7 143829803.748 7      1429.716 7        47.897               
> 2020 12 01 09 30 28.2000000  0  4                                             
G07  28906785.576 7 151909070.463 7      3999.990 7        45.012               
G09  26339904.198 7 138419986.512 7      2403.821 7        44.858               
G22  28023216.355 7 147265859.122 7     -2124.616 7        43.813               
G06  27369319.437 7 143829660.942 7      1427.455 7        47.466               
> 2020 12 01 09 30 28.3000000  0  4                                             
G07  28906703.379 7 151908670.134 7      4002.228 7        45.096               
G09  26339852.592 7 138419746.122 7      2398.598 7        45.103               
G22  28023251.182 7 147266071.719 7     -2124.781 7        44.125               
G06  27369284.039 7 143829518.123 7      1429.042 7        47.122               
> 2020 12 01 09 30 28.4000000  0  4                                             
G07  28906622.593 7 151908269.755 7      4007.354 7        45.211               
G09  26339804.194 7 138419505.938 7      2402.220 7        45.278               
G22  28023286.151 7 147266284.297 7     -2124.745 7        44.385               
G06  27369248.167 7 143829375.349 7      1429.671 7        46.644               
> 2020 12 01 09 30 28.5000000  0  4                                             
G07  28906540.914 7 151907869.427 7      4003.891 7        45.037               
G09  26339750.801 7 138419265.692 7      2406.347 7        45.158               
G22  28023320.585 7 147266496.870 7     -2127.155 7        44.192               
G06  27369214.975 7 143829232.520 7      1428.720 7        46.497               
> 2020 12 01 09 30 28.6000000  0  4                                             
G07  28906459.056 7 151907469.084 7      4007.327 7        45.125               
G09  26339697.578 7 138419025.430 7      2402.839 7        44.956               
G22  28023353.294 7 147266709.418 7     -2128.428 7        43.927               
G06  27369181.390 7 143829089.740 7      1427.270 7        46.377               
> 2020 12 01 09 30 28.7000000  0  4                                             
G07  28906378.475 7 151907068.707 7      4002.604 7        45.373               
G09  26339647.098 7 138418785.119 7      2403.352 7        45.242               
G22  28023387.487 7 147266921.997 7     -2124.043 7        43.621               
G06  27369146.876 7 143828946.910 7      1426.151 7        46.195               
> 2020 12 01 09 30 28.8000000  0  4                                             
G07  28906298.002 7 151906668.337 7      4002.091 7        45.910               
G09  26339595.993 7 138418544.848 7      2402.716 7        45.531               
G22  28023422.242 7 147267134.586 7     -2126.874 7        43.535               
G06  27369114.274 7 143828804.147 7      1430.644 7        46.269               
> 2020 12 01 09 30 28.9000000  0  4                                             
G07  28906216.582 7 151906267.972 7      4003.949 7        46.196               
G09  26339542.109 7 138418304.637 7      2407.078 7        45.274               
G22  28023459.347 7 147267347.140 7     -2126.438 7        43.618               
G06  27369083.343 7 143828661.387 7      1427.359 7        46.400               
> 2020 12 01 09 30 29.0000000  0  4                                             
G07  28906134.786 7 151905867.634 7      4001.182 7        46.396               
G09  26339488.930 7 138418064.341 7      2403.333 7        44.766               
G22  28023494.647 7 147267559.733 7     -2124.861 7        43.735               
G06  27369053.564 7 143828518.616 7      1428.564 7        46.922               
> 2020 12 01 09 30 29.1000000  0  4                                             
G07  28906053.554 7 151905467.292 7      4002.163 7        46.712               
G09  26339434.617 7 138417824.120 7      2405.032 7        44.398               
G22  28023529.358 7 147267772.351 7     -2127.864 7        43.489               
G06  27369020.846 7 143828375.839 7      1430.135 7        46.993               
> 2020 12 01 09 30 29.2000000  0  4                                             
G07  28905971.803 7 151905066.927 7      4004.087 7        47.064               
G09  26339384.557 7 138417583.863 7      2400.686 7        44.607               
G22  28023562.487 7 147267984.910 7     -2121.018 7        43.225               
G06  27368985.903 7 143828233.076 7      1425.544 7        46.862               
> 2020 12 01 09 30 29.3000000  0  4                                             
G07  28905889.927 7 151904666.585 7      4006.714 7        47.086               
G09  26339334.068 7 138417343.546 7      2403.378 7        44.737               
G22  28023596.661 7 147268197.490 7     -2125.502 7        42.962               
G06  27368953.480 7 143828090.343 7      1426.958 7        47.018               
> 2020 12 01 09 30 29.4000000  0  4                                             
G07  28905805.326 7 151904266.296 7      4000.232 7        46.444               
G09  26339281.516 7 138417103.281 7      2401.622 7        44.594               
G22  28023633.302 7 147268410.113 7     -2122.317 7        43.022               
G06  27368916.732 7 143827947.587 7      1428.295 7        46.685               
> 2020 12 01 09 30 29.5000000  0  4                                             
G07  28905721.020 7 151903865.961 7      4002.126 7        45.619               
G09  26339229.946 7 138416863.056 7      2406.413 7        44.202               
G22  28023669.576 7 147268622.661 7     -2125.743 7        43.271               
G06  27368885.506 7 143827804.802 7      1425.595 7        46.735               
> 2020 12 01 09 30 29.6000000  0  4                                             
G07  28905638.296 7 151903465.556 7      4004.730 7        45.385               
G09  26339173.426 7 138416622.702 7      2407.525 7        43.530               
G22  28023706.869 7 147268835.201 7     -2125.939 7        43.727               
G06  27368855.030 7 143827662.053 7      1427.487 7        46.909               
> 2020 12 01 09 30 29.7000000  0  4                                             
G07  28905557.411 7 151903065.126 7      4004.778 7        45.645               
G09  26339122.401 7 138416382.431 7      2402.498 7        43.689               
G22  28023743.554 7 147269047.744 7     -2127.228 7        44.324               
G06  27368821.526 7 143827519.242 7      1429.497 7        47.006               
> 2020 12 01 09 30 29.8000000  0  4                                             
G07  28905477.626 7 151902664.707 7      4003.213 7        45.920               
G09  26339073.967 7 138416142.152 7      2402.348 7        44.037               
G22  28023780.069 7 147269260.308 7     -2124.801 7        44.145               
G06  27368790.139 7 143827376.477 7      1427.543 7        46.989               
> 2020 12 01 09 30 29.9000000  0  4                                             
G07  28905396.948 7 151902264.375 7      3999.964 7        46.273               
G09  26339023.925 7 138415901.924 7      2403.543 7        44.173               
G22  28023813.502 7 147269472.940 7     -2125.914 7        43.682               
G06  27368758.698 7 143827233.761 7      1425.850 7        47.219               
> 2020 12 01 09 30 30.0000000  0  4                                             
G07  28905316.215 7 151901864.061 7      4001.965 7        46.293               
G09  26338971.801 7 138415661.684 7      2403.022 7        44.339               
G22  28023846.515 7 147269685.536 7     -2125.348 7        43.453               
G06  27368725.489 7 143827091.020 7      1428.883 7        47.035               
> 2020 12 01 09 30 30.1000000  0  4                                             
G07  28905233.884 7 151901463.778 7      4003.231 7        46.257               
G09  26338923.054 7 138415421.503 7      2401.397 7        44.283               
G22  28023882.226 7 147269898.153 7     -2125.888 7        43.418               
G06  27368692.315 7 143826948.351 7      1425.552 7        47.048               
> 2020 12 01 09 30 30.2000000  0  4                                             
G07  28905153.178 7 151901063.482 7      4003.228 7        46.455               
G09  26338870.010 7 138415181.338 7      2407.487 7        44.038               
G22  28023917.589 7 147270110.849 7     -2125.849 7        43.522               
G06  27368661.232 7 143826805.746 7      1427.399 7        47.246               
> 2020 12 01 09 30 30.3000000  0  4                                             
G07  28905071.481 7 151900663.207 7      4004.817 7        46.360               
G09  26338814.017 7 138414941.084 7      2398.312 7        43.623               
G22  28023952.737 7 147270323.515 7     -2127.600 7        43.566               
G06  27368630.685 7 143826663.131 7      1424.418 7        47.447               
> 2020 12 01 09 30 30.4000000  0  4                                             
G07  28904988.819 7 151900263.007 7      3999.434 7        46.165               
G09  26338767.308 7 138414700.980 7      2400.582 7        43.666               
G22  28023986.653 7 147270536.201 7     -2126.794 7        43.879               
G06  27368596.001 7 143826520.505 7      1426.626 7        47.131               
> 2020 12 01 09 30 30.5000000  0  4                                             
G07  28904904.754 7 151899862.770 7      4003.052 7        45.938               
G09  26338717.954 7 138414460.886 7      2401.365 7        43.828               
G22  28024019.157 7 147270748.891 7     -2125.416 7        43.862               
G06  27368562.246 7 143826377.868 7      1427.467 7        46.926               
> 2020 12 01 09 30 30.6000000  0  4                                             
G07  28904823.799 7 151899462.475 7      4001.679 7        46.102               
G09  26338664.132 7 138414220.778 7      2401.253 7        43.745               
G22  28024053.608 7 147270961.594 7     -2126.623 7        43.850               
G06  27368529.903 7 143826235.281 7      1424.507 7        47.134               
> 2020 12 01 09 30 30.7000000  0  4                                             
G07  28904742.593 7 151899062.274 7      4000.687 7        46.096               
G09  26338615.332 7 138413980.654 7      2403.771 7        43.862               
G22  28024088.944 7 147271174.373 7     -2128.149 7        43.636               
G06  27368497.337 7 143826092.770 7      1424.946 7        47.302               
> 2020 12 01 09 30 30.8000000  0  4                                             
G07  28904660.315 7 151898662.167 7      4001.426 7        46.085               
G09  26338563.485 7 138413740.592 7      2399.937 7        43.653               
G22  28024123.789 7 147271387.176 7     -2127.127 7        43.392               
G06  27368464.726 7 143825950.246 7      1424.418 7        47.134               
> 2020 12 01 09 30 30.9000000  0  4                                             
G07  28904577.841 7 151898262.079 7      4003.133 7        46.137               
G09  26338506.920 7 138413500.628 7      2403.694 7        43.155               
G22  28024156.694 7 147271600.011 7     -2128.193 7        43.240               
G06  27368431.418 7 143825807.815 7      1423.818 7        47.050               
> 2020 12 01 09 30 31.0000000  0  4                                             
G07  28904497.242 7 151897861.920 7      4000.843 7        46.084               
G09  26338457.066 7 138413260.589 7      2401.322 7        42.845               
G22  28024192.334 7 147271812.819 7     -2130.026 7        42.975               
G06  27368396.627 7 143825665.369 7      1423.680 7        46.802               
> 2020 12 01 09 30 31.1000000  0  4                                             
G07  28904416.850 7 151897461.806 7      4003.465 7        46.329               
G09  26338405.246 7 138413020.567 7      2402.111 7        42.544               
G22  28024229.198 7 147272025.659 7     -2123.944 7        42.931               
G06  27368360.326 7 143825522.862 7      1422.292 7        46.051               
> 2020 12 01 09 30 31.2000000  0  4                                             
G07  28904335.403 7 151897061.717 7      3998.073 7        46.330               
G09  26338350.334 7 138412780.528 7      2400.132 7        42.191               
G22  28024263.337 7 147272238.513 7     -2130.603 7        43.192               
G06  27368328.564 7 143825380.484 7      1423.082 7        45.649               
> 2020 12 01 09 30 31.3000000  0  4                                             
G07  28904253.643 7 151896661.603 7      4005.183 7        46.246               
G09  26338299.077 6 138412540.565 6      2400.445 6        41.719               
G22  28024298.217 7 147272451.357 7     -2128.820 7        43.468               
G06  27368296.847 7 143825238.067 7      1424.926 7        45.666               
> 2020 12 01 09 30 31.4000000  0  4                                             
G07  28904169.757 7 151896261.493 7      4000.928 7        46.044               
G09  26338249.848 7 138412300.654 7      2397.825 7        42.346               
G22  28024333.312 7 147272664.181 7     -2125.474 7        43.750               
G06  27368265.880 7 143825095.630 7      1421.899 7        46.096               
> 2020 12 01 09 30 31.5000000  0  4                                             
G07  28904088.864 7 151895861.414 7      4002.008 7        45.892               
G09  26338202.754 7 138412060.620 7      2398.870 7        42.783               
G22  28024366.968 7 147272877.041 7     -2125.052 7        43.578               
G06  27368232.384 7 143824953.231 7      1425.374 7        46.108               
> 2020 12 01 09 30 31.6000000  0  4                                             
G07  28904007.551 7 151895461.317 7      3999.347 7        45.983               
G09  26338152.846 7 138411820.546 7      2401.428 7        43.350               
G22  28024404.654 7 147273089.873 7     -2127.008 7        43.396               
G06  27368198.236 7 143824810.846 7      1419.802 7        45.843               
> 2020 12 01 09 30 31.7000000  0  4                                             
G07  28903927.480 7 151895061.244 7      4001.068 7        46.448               
G09  26338101.508 7 138411580.661 7      2396.943 7        43.505               
G22  28024440.696 7 147273302.748 7     -2123.292 7        43.359               
G06  27368169.056 7 143824668.494 7      1423.458 7        46.048               
> 2020 12 01 09 30 31.8000000  0  4                                             
G07  28903845.318 7 151894661.123 7      4002.232 7        46.481               
G09  26338047.651 7 138411340.708 7      2400.557 7        43.599               
G22  28024475.880 7 147273515.643 7     -2133.749 7        43.462               
G06  27368139.152 7 143824526.072 7      1422.771 7        46.455               
> 2020 12 01 09 30 31.9000000  0  4                                             
G07  28903764.210 7 151894260.937 7      4000.268 7        46.295               
G09  26337993.999 7 138411100.635 7      2401.650 7        43.463               
G22  28024511.672 7 147273728.436 7     -2130.482 7        43.268               
G06  27368110.482 7 143824383.631 7      1423.716 7        46.775               
> 2020 12 01 09 30 32.0000000  0  4                                             
G07  28903683.978 7 151893860.800 7      4002.097 7        46.388               
G09  26337942.760 7 138410860.649 7      2401.908 7        43.156               
G22  28024544.247 7 147273941.236 7     -2128.259 7        43.249               
G06  27368079.640 7 143824241.237 7      1426.228 7        46.735               
> 2020 12 01 09 30 32.1000000  0  4                                             
G07  28903602.844 7 151893460.683 7      4003.381 7        46.910               
G09  26337890.126 7 138410620.653 7      2400.470 7        42.537               
G22  28024579.761 7 147274154.081 7     -2129.032 7        43.145               
G06  27368048.574 7 143824098.777 7      1425.204 7        46.822               
> 2020 12 01 09 30 32.2000000  0  4                                             
G07  28903522.156 7 151893060.524 7      4000.594 7        47.102               
G09  26337838.119 7 138410380.577 7      2400.764 7        42.185               
G22  28024613.659 7 147274366.872 7     -2125.584 7        43.154               
G06  27368016.893 7 143823956.326 7      1423.088 7        46.945               
> 2020 12 01 09 30 32.3000000  0  4                                             
G07  28903439.646 7 151892660.320 7      4001.064 7        47.125               
G09  26337785.896 7 138410140.514 7      2401.039 7        42.388               
G22  28024649.897 7 147274579.670 7     -2124.816 7        43.226               
G06  27367984.666 7 143823813.879 7      1424.711 7        47.010               
> 2020 12 01 09 30 32.4000000  0  4                                             
G07  28903359.120 7 151892260.216 7      4001.088 7        46.999               
G09  26337735.220 7 138409900.457 7      2399.641 7        42.625               
G22  28024685.501 7 147274792.457 7     -2127.160 7        43.321               
G06  27367953.565 7 143823671.485 7      1425.598 7        46.948               
> 2020 12 01 09 30 32.5000000  0  4                                             
G07  28903276.359 7 151891860.098 7      4006.267 7        46.807               
G09  26337681.050 7 138409660.441 7      2403.315 7        42.172               
G22  28024722.249 7 147275005.279 7     -2126.387 7        43.360               
G06  27367918.792 7 143823529.067 7      1424.845 7        46.717               
> 2020 12 01 09 30 32.6000000  0  4                                             
G07  28903193.965 7 151891459.899 7      4001.770 7        46.348               
G09  26337626.996 7 138409420.447 7      2399.890 7        42.025               
G22  28024755.923 7 147275218.112 7     -2128.872 7        43.778               
G06  27367886.967 7 143823386.665 7      1424.767 7        46.545               
> 2020 12 01 09 30 32.7000000  0  4                                             
G07  28903110.847 7 151891059.744 7      4003.965 7        46.294               
G09  26337577.276 7 138409180.422 7      2401.450 7        42.288               
G22  28024791.197 7 147275430.951 7     -2124.995 7        43.921               
G06  27367856.170 7 143823244.307 7      1423.548 7        46.981               
> 2020 12 01 09 30 32.8000000  0  4                                             
G07  28903023.164 7 151890659.589 7      3999.066 7        45.563               
G09  26337529.485 7 138408940.328 7      2403.200 7        42.700               
G22  28024826.649 7 147275643.764 7     -2132.132 7        43.904               
G06  27367824.157 7 143823101.939 7      1422.184 7        47.506               
> 2020 12 01 09 30 32.9000000  0  4                                             
G07  28902930.415 7 151890259.448 7      4009.890 7        43.723               
G09  26337480.139 7 138408700.424 7      2395.518 7        42.581               
G22  28024860.868 7 147275856.621 7     -2128.451 7        43.728               
G06  27367790.778 7 143822959.568 7      1422.454 7        47.239               
> 2020 12 01 09 30 33.0000000  0  4                                             
G07  28902842.517 7 151889859.400 7      4001.322 7        42.479               
G09  26337433.448 7 138408460.522 7      2399.641 7        42.791               
G22  28024893.747 7 147276069.489 7     -2127.319 7        43.502               
G06  27367756.246 7 143822817.172 7      1424.266 7        46.994               
> 2020 12 01 09 30 33.1000000  0  4                                             
G07  28902763.679 7 151889459.336 7      3998.064 7        42.417               
G09  26337386.345 7 138408220.484 7      2400.170 7        43.690               
G22  28024926.867 7 147276282.397 7     -2129.995 7        43.344               
G06  27367721.866 7 143822674.867 7      1423.318 7        46.614               
> 2020 12 01 09 30 33.2000000  0  4                                             
G07  28902686.681 7 151889059.256 7      4000.486 7        42.745               
G09  26337334.427 7 138407980.521 7      2398.559 7        43.798               
G22  28024961.622 7 147276495.233 7     -2129.892 7        43.219               
G06  27367689.085 7 143822532.597 7      1424.651 7        46.720               
> 2020 12 01 09 30 33.3000000  0  4                                             
G07  28902607.736 7 151888659.179 7      4001.586 7        42.848               
G09  26337285.081 7 138407740.622 7      2399.213 7        44.041               
G22  28024997.253 7 147276708.128 7     -2132.186 7        42.906               
G06  27367656.769 7 143822390.279 7      1420.987 7        46.904               
> 2020 12 01 09 30 33.4000000  0  4                                             
G07  28902528.532 7 151888259.050 7      4001.816 7        43.071               
G09  26337236.040 7 138407500.613 7      2398.722 7        44.886               
G22  28025029.078 7 147276920.978 7     -2128.216 7        42.408               
G06  27367624.319 7 143822247.914 7      1425.660 7        47.060               
> 2020 12 01 09 30 33.5000000  0  4                                             
G07  28902450.399 7 151887858.908 7      4001.929 7        43.404               
G09  26337186.596 7 138407260.571 7      2402.656 7        45.309               
G22  28025065.075 7 147277133.808 7     -2124.984 7        42.052               
G06  27367589.832 7 143822105.550 7      1424.746 7        46.959               
> 2020 12 01 09 30 33.6000000  0  4                                             
G07  28902372.848 7 151887458.813 7      3999.150 7        44.370               
G09  26337135.777 7 138407020.642 7      2397.178 7        45.506               
G22  28025099.982 6 147277346.638 6     -2127.938 6        41.864               
G06  27367556.095 7 143821963.207 7      1426.306 7        46.632               
> 2020 12 01 09 30 33.7000000  0  4                                             
G07  28902294.939 7 151887058.689 7      4002.357 7        44.955               
G09  26337084.528 7 138406780.727 7      2404.498 7        45.161               
G22  28025133.460 6 147277559.515 6     -2128.331 6        41.886               
G06  27367522.403 7 143821820.921 7      1425.418 7        46.508               
> 2020 12 01 09 30 33.8000000  0  4                                             
G07  28902216.351 7 151886658.604 7      3997.994 7        45.543               
G09  26337030.725 7 138406540.727 7      2397.756 7        44.853               
G22  28025170.592 6 147277772.428 6     -2128.745 6        41.887               
G06  27367491.311 7 143821678.656 7      1422.094 7        46.627               
> 2020 12 01 09 30 33.9000000  0  4                                             
G07  28902135.502 7 151886258.563 7      3999.305 7        45.947               
G09  26336979.128 7 138406300.840 7      2396.494 7        44.757               
G22  28025205.392 6 147277985.377 6     -2131.789 6        41.824               
G06  27367459.853 7 143821536.419 7      1420.762 7        46.843               
> 2020 12 01 09 30 34.0000000  0  4                                             
G07  28902054.645 7 151885858.551 7      3998.235 7        46.333               
G09  26336920.482 7 138406060.923 7      2399.773 7        43.966               
G22  28025242.023 6 147278198.372 6     -2128.675 6        41.944               
G06  27367426.866 7 143821394.228 7      1421.845 7        46.977               
> 2020 12 01 09 30 34.1000000  0  4                                             
G07  28901973.904 7 151885458.557 7      3997.150 7        46.822               
G09  26336866.088 7 138405821.087 7      2399.938 7        43.835               
G22  28025277.886 7 147278411.371 7     -2129.105 7        42.121               
G06  27367394.014 7 143821252.058 7      1422.354 7        46.783               
> 2020 12 01 09 30 34.2000000  0  4                                             
G07  28901891.260 7 151885058.655 7      3998.483 7        46.779               
G09  26336819.325 7 138405581.351 7      2398.171 7        43.912               
G22  28025316.135 7 147278624.441 7     -2133.007 7        42.388               
G06  27367362.189 7 143821109.991 7      1420.854 7        46.978               
> 2020 12 01 09 30 34.3000000  0  4                                             
G07  28901808.392 7 151884658.704 7      3999.031 7        46.729               
G09  26336771.222 7 138405341.535 7      2400.281 7        44.055               
G22  28025352.293 7 147278837.478 7     -2130.808 7        42.844               
G06  27367328.283 7 143820967.822 7      1420.057 7        46.988               
> 2020 12 01 09 30 34.4000000  0  4                                             
G07  28901726.811 7 151884258.700 7      3997.124 7        46.810               
G09  26336721.349 7 138405101.746 7      2396.826 7        44.388               
G22  28025389.666 7 147279050.458 7     -2131.926 7        43.456               
G06  27367295.904 7 143820825.641 7      1422.520 7        47.006               
> 2020 12 01 09 30 34.5000000  0  4                                             
G07  28901643.899 7 151883858.709 7      3998.853 7        46.700               
G09  26336673.442 7 138404861.896 7      2401.236 7        44.961               
G22  28025425.181 7 147279263.391 7     -2125.621 7        43.786               
G06  27367263.722 7 143820683.517 7      1421.536 7        47.120               
> 2020 12 01 09 30 34.6000000  0  4                                             
G07  28901561.648 7 151883458.668 7      3998.494 7        46.323               
G09  26336623.365 7 138404622.069 7      2400.742 7        44.923               
G22  28025459.391 7 147279476.354 7     -2126.861 7        43.751               
G06  27367231.996 7 143820541.352 7      1420.608 7        47.392               
> 2020 12 01 09 30 34.7000000  0  4                                             
G07  28901479.843 7 151883058.662 7      4003.674 7        46.250               
G09  26336568.542 7 138404382.144 7      2404.089 7        44.123               
G22  28025493.950 7 147279689.315 7     -2127.378 7        43.574               
G06  27367199.921 7 143820399.178 7      1421.925 7        47.781               
> 2020 12 01 09 30 34.8000000  0  4                                             
G07  28901398.959 7 151882658.653 7      3996.977 7        46.175               
G09  26336518.902 7 138404142.264 7      2398.087 7        43.884               
G22  28025526.543 7 147279902.302 7     -2128.963 7        43.481               
G06  27367166.649 7 143820257.010 7      1421.015 7        47.761               
> 2020 12 01 09 30 34.9000000  0  4                                             
G07  28901318.102 7 151882258.560 7      4001.636 7        46.688               
G09  26336467.636 7 138403902.304 7      2402.374 7        43.753               
G22  28025559.600 7 147280115.219 7     -2128.166 7        43.191               
G06  27367135.029 7 143820114.755 7      1424.096 7        47.762               
> 2020 12 01 09 30 35.0000000  0  4                                             
G07  28901237.093 7 151881858.457 7      3997.492 7        46.769               
G09  26336414.529 7 138403662.336 7      2398.963 7        43.827               
G22  28025592.211 7 147280328.091 7     -2129.459 7        42.928               
G06  27367101.936 7 143819972.516 7      1422.247 7        47.526               
> 2020 12 01 09 30 35.1000000  0  4                                             
G07  28901153.555 7 151881458.440 7      4000.094 7        46.773               
G09  26336364.844 7 138403422.448 7      2399.909 7        44.015               
G22  28025626.940 7 147280541.042 7     -2127.372 7        43.232               
G06  27367069.432 7 143819830.370 7      1421.881 7        47.631               
> 2020 12 01 09 30 35.2000000  0  4                                             
G07  28901071.876 7 151881058.439 7      3998.033 7        46.771               
G09  26336315.043 7 138403182.686 7      2396.962 7        44.492               
G22  28025662.776 7 147280754.011 7     -2130.094 7        43.323               
G06  27367036.812 7 143819688.211 7      1420.356 7        47.446               
> 2020 12 01 09 30 35.3000000  0  4                                             
G07  28900989.794 7 151880658.486 7      3998.619 7        46.783               
G09  26336264.921 7 138402942.879 7      2399.671 7        44.802               
G22  28025699.836 7 147280967.028 7     -2128.074 7        43.305               
G06  27367003.174 7 143819546.101 7      1421.741 7        47.112               
> 2020 12 01 09 30 35.4000000  0  4                                             
G07  28900907.892 7 151880258.509 7      3999.261 7        46.398               
G09  26336215.200 7 138402703.085 7      2396.024 7        44.948               
G22  28025733.403 7 147281180.036 7     -2124.915 7        43.046               
G06  27366971.171 7 143819403.996 7      1419.932 7        46.816               
> 2020 12 01 09 30 35.5000000  0  4                                             
G07  28900825.864 7 151879858.516 7      3998.823 7        46.154               
G09  26336164.372 7 138402463.250 7      2405.628 7        44.182               
G22  28025767.926 7 147281393.043 7     -2133.198 7        42.464               
G06  27366937.818 7 143819261.862 7      1423.094 7        46.966               
> 2020 12 01 09 30 35.6000000  0  4                                             
G07  28900743.702 7 151879458.534 7      4002.827 7        46.044               
G09  26336105.967 7 138402223.346 7      2400.158 7        43.174               
G22  28025799.018 7 147281606.057 7     -2128.306 7        42.333               
G06  27366905.761 7 143819119.778 7      1420.984 7        47.122               
> 2020 12 01 09 30 35.7000000  0  4                                             
G07  28900661.487 7 151879058.571 7      3998.156 7        46.064               
G09  26336054.763 7 138401983.541 7      2396.819 7        43.263               
G22  28025835.605 7 147281819.122 7     -2130.362 7        42.124               
G06  27366874.428 7 143818977.751 7      1420.247 7        47.143               
> 2020 12 01 09 30 35.8000000  0  4                                             
G07  28900580.603 7 151878658.598 7      4000.100 7        46.183               
G09  26335998.887 7 138401743.775 7      2398.540 7        42.880               
G22  28025871.299 7 147282032.163 7     -2126.765 7        42.137               
G06  27366842.710 7 143818835.687 7      1421.121 7        47.168               
> 2020 12 01 09 30 35.9000000  0  4                                             
G07  28900499.075 7 151878258.635 7      3999.566 7        46.436               
G09  26335947.227 7 138401504.006 7      2395.847 7        43.238               
G22  28025907.403 7 147282245.219 7     -2133.936 7        42.329               
G06  27366811.645 7 143818693.624 7      1420.852 7        47.523               
> 2020 12 01 09 30 36.0000000  0  4                                             
G07  28900418.495 7 151877858.748 7      3999.463 7        47.195               
G09  26335898.499 7 138401264.300 7      2398.143 7        43.506               
G22  28025942.945 7 147282458.299 7     -2129.452 7        42.573               
G06  27366779.132 8 143818551.658 8      1419.786 8        48.031               
> 2020 12 01 09 30 36.1000000  0  4                                             
G07  28900338.558 7 151877458.844 7      3999.138 7        47.559               
G09  26335850.109 7 138401024.458 7      2400.273 7        43.982               
G22  28025980.166 7 147282671.393 7     -2138.378 7        42.858               
G06  27366746.530 8 143818409.684 8      1421.634 8        48.035               
> 2020 12 01 09 30 36.2000000  0  4                                             
G07  28900256.807 7 151877058.890 7      3999.735 7        47.613               
G09  26335799.951 7 138400784.693 7      2396.735 7        43.829               
G22  28026015.484 7 147282884.450 7     -2132.751 7        43.014               
G06  27366711.105 7 143818267.597 7      1418.622 7        47.735               
> 2020 12 01 09 30 36.3000000  0  4                                             
G07  28900175.548 7 151876658.941 7      3998.714 7        47.440               
G09  26335743.226 7 138400545.016 7      2399.410 7        43.138               
G22  28026051.910 7 147283097.524 7     -2132.175 7        43.328               
G06  27366674.804 7 143818125.541 7      1419.766 7        47.334               
> 2020 12 01 09 30 36.4000000  0  4                                             
G07  28900091.554 7 151876259.072 7      3998.088 7        47.175               
G09  26335687.081 7 138400305.199 7      2399.126 7        42.654               
G22  28026087.022 7 147283310.621 7     -2133.604 7        43.348               
G06  27366642.425 7 143817983.598 7      1418.849 7        47.468               
> 2020 12 01 09 30 36.5000000  0  4                                             
G07  28900008.428 7 151875859.159 7      3998.088 7        46.955               
G09  26335635.610 7 138400065.490 7      2397.259 7        42.265               
G22  28026122.171 7 147283523.697 7     -2129.314 7        43.301               
G06  27366609.242 7 143817841.614 7      1420.134 7        47.592               
> 2020 12 01 09 30 36.6000000  0  4                                             
G07  28899924.970 7 151875459.171 7      3999.383 7        46.400               
G09  26335581.627 6 138399825.758 6      2395.661 6        41.607               
G22  28026158.231 7 147283736.743 7     -2128.053 7        43.534               
G06  27366573.674 7 143817699.623 7      1421.732 7        47.532               
> 2020 12 01 09 30 36.7000000  0  4                                             
G07  28899841.817 7 151875059.235 7      4000.412 7        45.902               
G09  26335536.812 7 138399585.977 7      2398.641 7        42.260               
G22  28026194.013 7 147283949.735 7     -2130.508 7        43.581               
G06  27366540.429 7 143817557.584 7      1421.113 7        47.287               
> 2020 12 01 09 30 36.8000000  0  4                                             
G07  28899759.030 7 151874659.306 7      4001.648 7        45.356               
G09  26335493.524 7 138399346.220 7      2399.491 7        43.193               
G22  28026226.883 7 147284162.822 7     -2132.730 7        43.519               
G06  27366508.953 7 143817415.583 7      1418.790 7        47.050               
> 2020 12 01 09 30 36.9000000  0  4                                             
G07  28899677.958 7 151874259.328 7      4002.357 7        45.351               
G09  26335447.511 7 138399106.432 7      2402.979 7        43.717               
G22  28026258.011 7 147284375.890 7     -2129.879 7        43.242               
G06  27366474.787 7 143817273.553 7      1418.134 7        46.838               
> 2020 12 01 09 30 37.0000000  0  4                                             
G07  28899599.665 7 151873859.253 7      3998.382 7        45.539               
G09  26335394.950 7 138398866.559 7      2398.776 7        43.476               
G22  28026291.596 7 147284588.851 7     -2129.000 7        43.094               
G06  27366442.319 7 143817131.497 7      1419.882 7        46.849               
> 2020 12 01 09 30 37.1000000  0  4                                             
G07  28899519.772 7 151873459.224 7      4001.188 7        45.885               
G09  26335341.619 7 138398626.676 7      2398.380 7        43.442               
G22  28026329.487 7 147284801.864 7     -2128.955 7        43.064               
G06  27366408.171 7 143816989.439 7      1420.626 7        46.487               
> 2020 12 01 09 30 37.2000000  0  4                                             
G07  28899439.826 7 151873059.181 7      4001.357 7        46.165               
G09  26335288.406 7 138398386.744 7      2398.595 7        43.169               
G22  28026364.234 7 147285014.753 7     -2126.686 7        43.221               
G06  27366374.569 7 143816847.285 7      1423.854 7        46.215               
> 2020 12 01 09 30 37.3000000  0  4                                             
G07  28899355.753 7 151872659.043 7      4001.436 7        45.842               
G09  26335237.952 7 138398146.815 7      2399.797 7        43.359               
G22  28026400.695 7 147285227.595 7     -2129.987 7        43.425               
G06  27366340.242 7 143816705.079 7      1419.587 7        45.861               
> 2020 12 01 09 30 37.4000000  0  4                                             
G07  28899271.813 7 151872258.807 7      3999.722 7        45.266               
G09  26335192.583 7 138397906.851 7      2400.331 7        43.526               
G22  28026436.415 7 147285440.419 7     -2129.615 7        43.572               
G06  27366306.237 7 143816562.884 7      1421.005 7        45.466               
> 2020 12 01 09 30 37.5000000  0  4                                             
G07  28899190.214 7 151871858.642 7      3998.309 7        45.049               
G09  26335141.719 7 138397666.809 7      2401.038 7        43.378               
G22  28026471.090 7 147285653.265 7     -2129.409 7        43.804               
G06  27366275.780 7 143816420.674 7      1423.670 7        45.625               
> 2020 12 01 09 30 37.6000000  0  4                                             
G07  28899106.078 7 151871458.542 7      4004.673 7        44.202               
G09  26335091.480 7 138397426.796 7      2399.168 7        43.678               
G22  28026506.453 7 147285866.123 7     -2129.494 7        43.922               
G06  27366246.394 7 143816278.443 7      1425.318 7        46.184               
> 2020 12 01 09 30 37.7000000  0  4                                             
G07  28899023.648 7 151871058.405 7      4001.008 7        43.755               
G09  26335042.930 7 138397186.873 7      2395.283 7        44.080               
G22  28026538.939 7 147286078.958 7     -2127.711 7        43.748               
G06  27366216.017 7 143816136.258 7      1421.207 7        46.392               
> 2020 12 01 09 30 37.8000000  0  4                                             
G07  28898944.890 7 151870658.219 7      4001.622 7        43.725               
G09  26334991.449 7 138396946.786 7      2395.292 7        43.802               
G22  28026574.454 7 147286291.837 7     -2127.242 7        43.672               
G06  27366181.923 7 143815994.120 7      1420.865 7        46.410               
> 2020 12 01 09 30 37.9000000  0  4                                             
G07  28898866.445 7 151870257.964 7      4004.510 7        44.657               
G09  26334940.254 7 138396706.876 7      2399.938 7        43.845               
G22  28026611.255 7 147286504.630 7     -2130.391 7        43.548               
G06  27366150.375 7 143815851.970 7      1424.680 7        46.466               
> 2020 12 01 09 30 38.0000000  0  4                                             
G07  28898786.213 7 151869857.719 7      4000.314 7        45.354               
G09  26334891.838 7 138396466.934 7      2402.399 7        44.454               
G22  28026646.671 7 147286717.435 7     -2125.545 7        43.644               
G06  27366120.471 7 143815709.739 7      1423.977 7        46.691               
> 2020 12 01 09 30 38.1000000  0  4                                             
G07  28898706.535 7 151869457.539 7      4005.241 7        45.515               
G09  26334842.511 7 138396226.867 7      2398.685 7        44.453               
G22  28026680.989 7 147286930.218 7     -2127.008 7        43.785               
G06  27366091.380 7 143815567.516 7      1422.210 7        47.158               
> 2020 12 01 09 30 38.2000000  0  4                                             
G07  28898624.713 7 151869057.287 7      4004.643 7        45.945               
G09  26334790.718 7 138395986.783 7      2402.660 7        44.553               
G22  28026716.316 7 147287142.974 7     -2131.958 7        43.774               
G06  27366060.610 7 143815425.280 7      1421.453 7        47.636               
> 2020 12 01 09 30 38.3000000  0  4                                             
G07  28898542.373 7 151868657.083 7      4002.229 7        46.175               
G09  26334740.827 7 138395746.800 7      2399.511 7        44.267               
G22  28026750.303 7 147287355.804 7     -2129.156 7        43.719               
G06  27366028.222 7 143815283.070 7      1423.279 7        47.829               
> 2020 12 01 09 30 38.4000000  0  4                                             
G07  28898459.014 7 151868256.907 7      4001.903 7        46.088               
G09  26334688.337 7 138395506.786 7      2400.265 7        44.092               
G22  28026786.898 7 147287568.608 7     -2128.889 7        43.800               
G06  27365993.369 7 143815140.880 7      1422.598 7        47.526               
> 2020 12 01 09 30 38.5000000  0  4                                             
G07  28898374.967 7 151867856.681 7      4003.371 7        45.749               
G09  26334633.622 7 138395266.716 7      2401.042 7        43.847               
G22  28026821.957 7 147287781.388 7     -2127.456 7        43.988               
G06  27365956.487 7 143814998.715 7      1416.867 7        46.631               
> 2020 12 01 09 30 38.6000000  0  4                                             
G07  28898293.243 7 151867456.457 7      4001.485 7        45.547               
G09  26334577.522 7 138395026.701 7      2402.242 7        43.167               
G22  28026858.607 7 147287994.247 7     -2128.050 7        43.950               
G06  27365920.231 7 143814856.533 7      1422.160 7        46.096               
> 2020 12 01 09 30 38.7000000  0  4                                             
G07  28898208.642 7 151867056.214 7      4005.965 7        45.270               
G09  26334518.304 7 138394786.688 7      2399.718 7        42.416               
G22  28026893.085 7 147288207.054 7     -2127.332 7        43.970               
G06  27365887.236 7 143814714.296 7      1424.481 7        45.822               
> 2020 12 01 09 30 38.8000000  0  4                                             
G07  28898125.774 7 151866656.037 7      4002.359 7        44.922               
G09  26334466.198 7 138394546.693 7      2401.174 7        42.735               
G22  28026929.055 7 147288419.886 7     -2127.002 7        43.817               
G06  27365857.510 7 143814572.178 7      1422.182 7        46.200               
> 2020 12 01 09 30 38.9000000  0  4                                             
G07  28898043.023 7 151866255.846 7      4001.085 7        44.627               
G09  26334417.979 7 138394306.728 7      2400.874 7        43.255               
G22  28026964.892 7 147288632.712 7     -2129.568 7        43.725               
G06  27365827.562 7 143814430.060 7      1422.276 7        46.686               
> 2020 12 01 09 30 39.0000000  0  4                                             
G07  28897958.860 7 151865855.733 7      4004.198 7        44.187               
G09  26334366.364 7 138394066.753 7      2401.099 7        43.342               
G22  28026998.262 7 147288845.592 7     -2130.797 7        43.773               
G06  27365796.425 7 143814287.917 7      1420.890 7        46.842               
> 2020 12 01 09 30 39.1000000  0  4                                             
G07  28897876.465 7 151865455.585 7      4003.247 7        43.848               
G09  26334312.525 7 138393826.866 7      2400.471 7        42.899               
G22  28027033.303 7 147289058.481 7     -2130.067 7        43.677               
G06  27365765.253 7 143814145.833 7      1420.692 7        46.798               
> 2020 12 01 09 30 39.2000000  0  4                                             
G07  28897798.056 7 151865055.428 7      3998.338 7        43.826               
G09  26334265.770 7 138393586.918 7      2400.991 7        42.849               
G22  28027067.567 7 147289271.342 7     -2126.369 7        43.828               
G06  27365732.651 7 143814003.799 7      1419.837 7        47.147               
> 2020 12 01 09 30 39.3000000  0  4                                             
G07  28897718.280 7 151864655.283 7      4000.905 7        44.118               
G09  26334214.540 7 138393346.972 7      2398.554 7        42.987               
G22  28027100.455 7 147289484.231 7     -2131.175 7        43.523               
G06  27365700.326 7 143813861.656 7      1421.797 7        47.102               
> 2020 12 01 09 30 39.4000000  0  4                                             
G07  28897639.933 7 151864255.145 7      4002.717 7        44.266               
G09  26334163.122 7 138393106.938 7      2401.930 7        43.343               
G22  28027132.852 7 147289697.129 7     -2131.279 7        43.276               
G06  27365668.697 7 143813719.543 7      1420.259 7        47.167               
> 2020 12 01 09 30 39.5000000  0  4                                             
G07  28897558.576 7 151863855.019 7      4002.516 7        44.511               
G09  26334103.260 7 138392866.979 7      2396.799 7        42.576               
G22  28027168.036 7 147289910.034 7     -2130.420 7        43.148               
G06  27365638.660 7 143813577.541 7      1419.878 7        47.572               
> 2020 12 01 09 30 39.6000000  0  4                                             
G07  28897477.817 7 151863454.838 7      4004.688 7        45.087               
G09  26334039.825 6 138392627.122 6      2396.294 6        41.190               
G22  28027204.113 7 147290122.929 7     -2130.211 7        43.184               
G06  27365606.111 7 143813435.471 7      1421.715 7        47.283               
> 2020 12 01 09 30 39.7000000  0  4                                             
G07  28897394.324 7 151863054.635 7      3999.835 7        45.214               
G09  26333983.815 6 138392387.207 6      2402.424 6        40.478               
G22  28027241.352 7 147290335.762 7     -2129.570 7        43.333               
G06  27365573.822 7 143813293.332 7      1421.911 7        47.395               
> 2020 12 01 09 30 39.8000000  0  4                                             
G07  28897312.841 7 151862654.423 7      4002.480 7        45.261               
G09  26333934.782 6 138392147.129 6      2399.572 6        40.154               
G22  28027275.393 7 147290548.542 7     -2131.036 7        43.340               
G06  27365541.202 7 143813151.182 7      1424.064 7        47.540               
> 2020 12 01 09 30 39.9000000  0  4                                             
G07  28897232.662 7 151862254.213 7      4001.172 7        45.341               
G09  26333893.174 6 138391907.188 6      2401.469 6        40.892               
G22  28027310.729 7 147290761.353 7     -2126.863 7        43.296               
G06  27365508.761 7 143813009.044 7      1420.654 7        47.332               
> 2020 12 01 09 30 40.0000000  0  4                                             
G07  28897149.947 7 151861854.018 7      4003.874 7        45.507               
G09  26333846.679 7 138391667.120 7      2399.350 7        42.147               
G22  28027346.145 7 147290974.207 7     -2126.268 7        43.474               
G06  27365476.320 7 143812867.011 7      1419.662 7        47.298               
> 2020 12 01 09 30 40.1000000  0  4                                             
G07  28897070.153 7 151861453.892 7      4000.081 7        45.822               
G09  26333796.262 7 138391427.279 7      2402.106 7        42.025               
G22  28027380.186 7 147291187.122 7     -2129.339 7        43.554               
G06  27365443.342 7 143812724.944 7      1420.528 7        47.290               
> 2020 12 01 09 30 40.2000000  0  4                                             
G07  28896990.064 7 151861053.769 7      4001.543 7        46.422               
G09  26333741.967 6 138391187.387 6      2399.112 6        41.683               
G22  28027414.199 7 147291400.020 7     -2128.536 7        43.291               
G06  27365411.384 7 143812582.911 7      1419.409 7        47.405               
> 2020 12 01 09 30 40.3000000  0  4                                             
G07  28896909.716 7 151860653.639 7      3997.206 7        46.631               
G09  26333690.307 6 138390947.333 6      2400.217 6        41.964               
G22  28027449.437 7 147291612.904 7     -2128.100 7        43.213               
G06  27365380.113 7 143812440.897 7      1421.153 7        47.428               
> 2020 12 01 09 30 40.4000000  0  4                                             
G07  28896826.982 7 151860253.513 7      3999.926 7        46.536               
G09  26333634.788 6 138390707.466 6      2395.736 6        41.604               
G22  28027487.132 7 147291825.809 7     -2130.105 7        43.520               
G06  27365349.932 7 143812298.901 7      1421.678 7        47.532               
> 2020 12 01 09 30 40.5000000  0  4                                             
G07  28896746.250 7 151859853.363 7      4000.797 7        46.683               
G09  26333580.163 6 138390467.574 6      2399.748 6        40.946               
G22  28027522.396 7 147292038.685 7     -2129.525 7        43.406               
G06  27365319.019 7 143812156.839 7      1419.703 7        47.622               
> 2020 12 01 09 30 40.6000000  0  4                                             
G07  28896663.990 7 151859453.223 7      4001.263 7        46.799               
G09  26333533.569 6 138390227.607 6      2400.146 6        41.176               
G22  28027558.653 7 147292251.588 7     -2128.235 7        43.419               
G06  27365284.433 7 143812014.796 7      1418.345 7        47.058               
> 2020 12 01 09 30 40.7000000  0  4                                             
G07  28896576.190 7 151859052.959 7      4009.291 7        45.872               
G09  26333486.967 6 138389987.652 6      2402.364 6        41.673               
G22  28027592.336 7 147292464.444 7     -2126.655 7        43.511               
G06  27365250.589 7 143811872.753 7      1420.796 7        46.930               
> 2020 12 01 09 30 40.8000000  0  4                                             
G07  28896491.438 7 151858652.867 7      4002.057 7        45.176               
G09  26333439.757 6 138389747.792 6      2403.212 6        41.947               
G22  28027626.894 7 147292677.406 7     -2127.946 7        43.681               
G06  27365217.246 7 143811730.778 7      1420.413 7        47.194               
> 2020 12 01 09 30 40.9000000  0  4                                             
G07  28896408.990 7 151858252.819 7      4002.886 7        44.774               
G09  26333389.223 7 138389507.922 7      2403.159 7        42.128               
G22  28027662.445 7 147292890.369 7     -2128.260 7        44.054               
G06  27365185.099 7 143811588.807 7      1420.564 7        47.338               
> 2020 12 01 09 30 41.0000000  0  4                                             
G07  28896327.811 7 151857852.660 7      4002.128 7        44.660               
G09  26333337.448 6 138389268.031 6      2402.198 6        41.970               
G22  28027697.298 7 147293103.227 7     -2129.186 7        44.018               
G06  27365153.051 7 143811446.840 7      1417.290 7        47.507               
> 2020 12 01 09 30 41.1000000  0  4                                             
G07  28896247.373 7 151857452.517 7      4002.123 7        44.755               
G09  26333284.064 7 138389028.139 7      2401.002 7        42.225               
G22  28027734.189 7 147293316.169 7     -2129.633 7        44.236               
G06  27365119.502 7 143811304.891 7      1419.732 7        47.426               
> 2020 12 01 09 30 41.2000000  0  4                                             
G07  28896168.473 7 151857052.379 7      4000.603 7        45.368               
G09  26333236.068 7 138388788.226 7      2398.756 7        42.501               
G22  28027769.400 7 147293529.049 7     -2128.986 7        44.161               
G06  27365085.059 7 143811162.892 7      1417.944 7        47.023               
> 2020 12 01 09 30 41.3000000  0  4                                             
G07  28896089.930 7 151856652.323 7      4000.835 7        46.289               
G09  26333181.782 7 138388548.329 7      2395.716 7        42.491               
G22  28027806.112 7 147293742.012 7     -2133.857 7        44.272               
G06  27365053.949 7 143811020.938 7      1419.525 7        46.982               
> 2020 12 01 09 30 41.4000000  0  4                                             
G07  28896011.020 7 151856252.226 7      4000.617 7        46.939               
G09  26333130.533 7 138388308.444 7      2399.453 7        42.617               
G22  28027838.508 7 147293954.916 7     -2131.996 7        44.298               
G06  27365022.839 7 143810878.968 7      1419.198 7        47.255               
> 2020 12 01 09 30 41.5000000  0  4                                             
G07  28895928.438 7 151855852.101 7      3999.556 7        47.066               
G09  26333081.179 7 138388068.509 7      2397.725 7        42.970               
G22  28027873.281 7 147294167.849 7     -2124.696 7        44.110               
G06  27364991.470 7 143810736.989 7      1419.034 7        47.503               
> 2020 12 01 09 30 41.6000000  0  4                                             
G07  28895845.901 7 151855451.845 7      4002.293 7        46.567               
G09  26333033.353 7 138387828.566 7      2400.264 7        43.611               
G22  28027908.242 7 147294380.702 7     -2127.491 7        43.871               
G06  27364958.645 7 143810594.949 7      1422.836 7        47.640               
> 2020 12 01 09 30 41.7000000  0  4                                             
G07  28895764.320 7 151855051.710 7      4002.322 7        46.458               
G09  26332985.383 7 138387588.600 7      2398.148 7        44.023               
G22  28027945.356 7 147294593.579 7     -2128.111 7        43.996               
G06  27364925.811 7 143810452.971 7      1418.241 7        47.736               
> 2020 12 01 09 30 41.8000000  0  4                                             
G07  28895684.562 7 151854651.614 7      4004.373 7        46.520               
G09  26332936.735 7 138387348.708 7      2401.210 7        44.153               
G22  28027980.174 7 147294806.475 7     -2125.441 7        43.903               
G06  27364895.067 7 143810311.077 7      1417.334 7        47.847               
> 2020 12 01 09 30 41.9000000  0  4                                             
G07  28895603.008 7 151854251.550 7      3998.547 7        46.444               
G09  26332886.925 7 138387108.903 7      2397.881 7        44.344               
G22  28028013.160 7 147295019.487 7     -2130.077 7        44.025               
G06  27364861.161 7 143810169.192 7      1421.533 7        47.620               
> 2020 12 01 09 30 42.0000000  0  4                                             
G07  28895522.025 7 151853851.476 7      4001.828 7        46.913               
G09  26332833.380 7 138386869.063 7      2397.967 7        44.187               
G22  28028045.789 7 147295232.463 7     -2128.044 7        44.191               
G06  27364824.922 7 143810027.272 7      1418.203 7        47.094               
> 2020 12 01 09 30 42.1000000  0  4                                             
G07  28895442.026 7 151853451.382 7      4002.034 7        47.486               
G09  26332780.506 7 138386629.233 7      2395.202 7        44.027               
G22  28028081.643 7 147295445.438 7     -2135.377 7        43.830               
G06  27364790.265 7 143809885.380 7      1417.555 7        46.835               
> 2020 12 01 09 30 42.2000000  0  4                                             
G07  28895360.632 8 151853051.289 8      4000.208 8        48.216               
G09  26332731.036 7 138386389.376 7      2399.708 7        43.985               
G22  28028115.943 7 147295658.462 7     -2133.124 7        43.595               
G06  27364756.609 7 143809743.537 7      1418.917 7        46.922               
> 2020 12 01 09 30 42.3000000  0  4                                             
G07  28895279.453 8 151852651.235 8      3999.467 8        48.169               
G09  26332681.994 7 138386149.542 7      2395.748 7        44.073               
G22  28028146.597 7 147295871.467 7     -2128.310 7        43.264               
G06  27364724.463 7 143809601.725 7      1420.629 7        46.850               
> 2020 12 01 09 30 42.4000000  0  4                                             
G07  28895196.237 7 151852251.178 7      4001.428 7        47.762               
G09  26332633.641 7 138385909.804 7      2398.570 7        44.580               
G22  28028182.130 7 147296084.498 7     -2130.964 7        43.158               
G06  27364693.281 7 143809459.869 7      1419.398 7        46.826               
> 2020 12 01 09 30 42.5000000  0  4                                             
G07  28895112.360 7 151851851.133 7      4000.053 7        47.351               
G09  26332582.830 7 138385670.007 7      2399.012 7        44.777               
G22  28028218.556 7 147296297.478 7     -2130.072 7        43.122               
G06  27364662.466 7 143809318.001 7      1418.252 7        47.113               
> 2020 12 01 09 30 42.6000000  0  4                                             
G07  28895028.778 7 151851451.031 7      4000.902 7        47.040               
G09  26332527.641 7 138385430.089 7      2394.949 7        44.394               
G22  28028253.347 7 147296510.458 7     -2130.007 7        43.275               
G06  27364630.650 7 143809176.125 7      1418.573 7        47.590               
> 2020 12 01 09 30 42.7000000  0  4                                             
G07  28894947.000 7 151851051.027 7      3997.112 7        46.484               
G09  26332478.698 7 138385190.300 7      2397.345 7        44.247               
G22  28028292.962 7 147296723.479 7     -2130.306 7        43.273               
G06  27364598.003 7 143809034.323 7      1417.432 7        47.998               
> 2020 12 01 09 30 42.8000000  0  4                                             
G07  28894864.436 7 151850651.066 7      3998.010 7        46.201               
G09  26332428.022 7 138384950.605 7      2397.940 7        44.379               
G22  28028328.137 7 147296936.551 7     -2130.668 7        43.367               
G06  27364564.115 7 143808892.598 7      1415.894 7        47.933               
> 2020 12 01 09 30 42.9000000  0  4                                             
G07  28894781.122 7 151850251.145 7      3997.060 7        45.887               
G09  26332373.718 7 138384710.896 7      2396.918 7        43.840               
G22  28028362.133 7 147297149.675 7     -2129.773 7        43.322               
G06  27364529.958 7 143808750.889 7      1418.061 7        47.781               
> 2020 12 01 09 30 43.0000000  0  4                                             
G07  28894697.397 7 151849851.206 7      3998.250 7        45.327               
G09  26332325.668 7 138384471.232 7      2395.319 7        43.932               
G22  28028398.559 7 147297362.793 7     -2132.201 7        43.487               
G06  27364496.847 7 143808609.166 7      1415.670 7        47.569               
> 2020 12 01 09 30 43.1000000  0  4                                             
G07  28894614.761 7 151849451.274 7      4003.094 7        44.944               
G09  26332275.331 7 138384231.571 7      2396.535 7        44.144               
G22  28028434.199 7 147297575.875 7     -2130.796 7        43.414               
G06  27364464.441 7 143808467.466 7      1418.533 7        47.507               
> 2020 12 01 09 30 43.2000000  0  4                                             
G07  28894535.441 7 151849051.318 7      3998.953 7        45.209               
G09  26332224.851 7 138383991.867 7      2395.198 7        44.357               
G22  28028469.490 7 147297788.960 7     -2130.136 7        43.353               
G06  27364433.046 7 143808325.696 7      1417.203 7        47.532               
> 2020 12 01 09 30 43.3000000  0  4                                             
G07  28894456.290 7 151848651.390 7      3999.296 7        45.450               
G09  26332173.477 7 138383752.162 7      2394.546 7        43.719               
G22  28028503.576 7 147298002.135 7     -2130.903 7        43.484               
G06  27364398.630 7 143808184.012 7      1416.724 7        47.379               
> 2020 12 01 09 30 43.4000000  0  4                                             
G07  28894375.915 7 151848251.487 7      3998.357 7        45.813               
G09  26332120.290 7 138383512.439 7      2394.644 7        42.829               
G22  28028538.107 7 147298215.310 7     -2129.815 7        43.300               
G06  27364363.937 7 143808042.381 7      1416.174 7        47.213               
> 2020 12 01 09 30 43.5000000  0  4                                             
G07  28894295.594 7 151847851.569 7      3996.423 7        46.201               
G09  26332068.327 7 138383272.794 7      2392.322 7        42.335               
G22  28028573.854 7 147298428.502 7     -2133.561 7        43.284               
G06  27364329.673 7 143807900.722 7      1417.391 7        46.869               
> 2020 12 01 09 30 43.6000000  0  4                                             
G07  28894216.228 7 151847451.705 7      3997.346 7        46.753               
G09  26332020.822 7 138383033.215 7      2398.516 7        42.509               
G22  28028608.842 7 147298641.702 7     -2131.748 7        43.571               
G06  27364296.374 7 143807759.139 7      1416.101 7        46.850               
> 2020 12 01 09 30 43.7000000  0  4                                             
G07  28894135.603 7 151847051.824 7      3998.786 7        47.089               
G09  26331971.012 7 138382793.627 7      2395.831 7        43.315               
G22  28028643.838 7 147298854.908 7     -2131.916 7        43.877               
G06  27364265.863 7 143807617.563 7      1417.079 7        47.042               
> 2020 12 01 09 30 43.8000000  0  4                                             
G07  28894054.156 7 151846651.968 7      3996.865 7        47.387               
G09  26331920.845 7 138382554.008 7      2396.990 7        43.867               
G22  28028679.291 7 147299068.115 7     -2130.203 7        44.122               
G06  27364233.976 7 143807475.977 7      1416.842 7        47.185               
> 2020 12 01 09 30 43.9000000  0  4                                             
G07  28893971.637 7 151846252.060 7      3999.537 7        47.523               
G09  26331872.751 7 138382314.386 7      2397.187 7        44.501               
G22  28028712.464 7 147299281.327 7     -2134.020 7        43.968               
G06  27364201.883 7 143807334.367 7      1417.633 7        47.117               
> 2020 12 01 09 30 44.0000000  0  4                                             
G07  28893889.878 7 151845852.199 7      4000.128 7        47.486               
G09  26331821.896 7 138382074.747 7      2392.218 7        44.531               
G22  28028747.318 7 147299494.576 7     -2134.364 7        43.741               
G06  27364170.058 7 143807192.818 7      1414.514 7        47.046               
> 2020 12 01 09 30 44.1000000  0  4                                             
G07  28893806.769 7 151845452.425 7      3998.898 7        47.248               
G09  26331770.004 7 138381835.295 7      2393.887 7        44.454               
G22  28028781.323 7 147299707.841 7     -2134.288 7        43.063               
G06  27364137.921 7 143807051.319 7      1417.043 7        46.970               
> 2020 12 01 09 30 44.2000000  0  4                                             
G07  28893725.331 7 151845052.683 7      3998.261 7        47.096               
G09  26331720.909 7 138381595.759 7      2393.330 7        45.044               
G22  28028817.123 7 147299921.116 7     -2131.537 7        42.555               
G06  27364105.935 7 143806909.848 7      1416.213 7        46.921               
> 2020 12 01 09 30 44.3000000  0  4                                             
G07  28893644.116 7 151844652.901 7      3997.146 7        47.355               
G09  26331669.473 7 138381356.219 7      2392.100 7        45.200               
G22  28028853.111 7 147300134.384 7     -2132.597 7        42.338               
G06  27364074.897 7 143806768.358 7      1414.250 7        47.093               
> 2020 12 01 09 30 44.4000000  0  4                                             
G07  28893563.178 7 151844253.136 7      3998.715 7        47.787               
G09  26331616.161 7 138381116.725 7      2391.247 7        44.631               
G22  28028887.250 7 147300347.692 7     -2136.730 7        42.113               
G06  27364041.482 7 143806626.907 7      1415.929 7        47.048               
> 2020 12 01 09 30 44.5000000  0  4                                             
G07  28893482.508 8 151843853.327 8      3998.016 8        48.306               
G09  26331566.306 7 138380877.237 7      2395.623 7        44.154               
G22  28028919.924 7 147300560.921 7     -2130.709 7        42.018               
G06  27364009.032 7 143806485.354 7      1418.111 7        47.103               
> 2020 12 01 09 30 44.6000000  0  4                                             
G07  28893400.481 8 151843453.624 8      3998.273 8        48.192               
G09  26331516.755 7 138380637.727 7      2395.316 7        44.397               
G22  28028955.322 7 147300774.245 7     -2136.610 7        42.050               
G06  27363976.474 7 143806343.938 7      1412.998 7        47.195               
> 2020 12 01 09 30 44.7000000  0  4                                             
G07  28893318.033 8 151843053.931 8      3996.010 8        48.011               
G09  26331464.694 7 138380398.249 7      2393.011 7        44.799               
G22  28028991.641 7 147300987.648 7     -2134.654 7        42.259               
G06  27363945.239 7 143806202.576 7      1412.201 7        47.298               
> 2020 12 01 09 30 44.8000000  0  4                                             
G07  28893235.273 7 151842654.263 7      3996.516 7        47.461               
G09  26331413.955 7 138380158.790 7      2391.335 7        45.227               
G22  28029027.835 7 147301201.072 7     -2132.113 7        42.613               
G06  27363915.719 7 143806061.204 7      1414.622 7        47.521               
> 2020 12 01 09 30 44.9000000  0  4                                             
G07  28893152.682 7 151842254.613 7      3994.645 7        46.652               
G09  26331360.410 7 138379919.494 7      2397.230 7        44.723               
G22  28029064.618 7 147301414.485 7     -2132.689 7        43.124               
G06  27363881.152 7 143805919.835 7      1412.782 7        47.672               
> 2020 12 01 09 30 45.0000000  0  4                                             
G07  28893067.849 7 151841854.875 7      3999.809 7        45.965               
G09  26331308.822 7 138379680.126 7      2390.384 7        44.551               
G22  28029101.402 7 147301627.907 7     -2136.065 7        43.326               
G06  27363847.889 7 143805778.502 7      1411.215 7        47.767               
> 2020 12 01 09 30 45.1000000  0  4                                             
G07  28892986.634 7 151841455.233 7      3994.525 7        45.788               
G09  26331258.575 7 138379440.801 7      2394.479 7        44.312               
G22  28029135.924 7 147301841.363 7     -2133.427 7        43.453               
G06  27363816.859 8 143805637.254 8      1411.899 8        48.007               
> 2020 12 01 09 30 45.2000000  0  4                                             
G07  28892906.822 7 151841055.604 7      3997.512 7        46.017               
G09  26331207.827 7 138379201.385 7      2395.275 7        44.377               
G22  28029171.010 7 147302054.816 7     -2131.763 7        43.108               
G06  27363785.061 8 143805495.968 8      1414.299 8        48.267               
> 2020 12 01 09 30 45.3000000  0  4                                             
G07  28892825.929 7 151840655.943 7      3997.880 7        46.172               
G09  26331155.980 7 138378961.952 7      2394.381 7        44.633               
G22  28029206.623 7 147302268.195 7     -2136.565 7        42.995               
G06  27363752.870 8 143805354.624 8      1413.208 8        48.303               
> 2020 12 01 09 30 45.4000000  0  4                                             
G07  28892745.706 7 151840256.265 7      3997.098 7        46.181               
G09  26331103.212 7 138378722.577 7      2396.242 7        44.186               
G22  28029242.469 7 147302481.612 7     -2133.141 7        42.860               
G06  27363719.455 8 143805213.250 8      1414.174 8        48.379               
> 2020 12 01 09 30 45.5000000  0  4                                             
G07  28892664.688 7 151839856.532 7      3996.519 7        46.274               
G09  26331050.847 7 138378483.112 7      2396.399 7        43.886               
G22  28029276.849 7 147302694.997 7     -2134.651 7        42.915               
G06  27363684.834 7 143805071.865 7      1412.679 7        47.937               
> 2020 12 01 09 30 45.6000000  0  4                                             
G07  28892583.741 7 151839456.816 7      3996.593 7        46.275               
G09  26331000.162 7 138378243.623 7      2391.639 7        44.332               
G22  28029308.548 7 147302908.313 7     -2128.677 7        42.985               
G06  27363650.677 7 143804930.524 7      1411.700 7        47.569               
> 2020 12 01 09 30 45.7000000  0  4                                             
G07  28892501.874 7 151839057.120 7      3997.001 7        46.195               
G09  26330949.530 7 138378004.144 7      2395.179 7        44.652               
G22  28029344.572 7 147303121.631 7     -2135.577 7        43.098               
G06  27363620.130 7 143804789.130 7      1413.042 7        47.367               
> 2020 12 01 09 30 45.8000000  0  4                                             
G07  28892417.756 7 151838657.364 7      3997.655 7        45.836               
G09  26330897.379 7 138377764.684 7      2391.342 7        44.560               
G22  28029379.363 7 147303334.980 7     -2134.137 7        43.108               
G06  27363588.395 7 143804647.757 7      1414.059 7        47.713               
> 2020 12 01 09 30 45.9000000  0  4                                             
G07  28892335.567 7 151838257.567 7      3999.018 7        45.300               
G09  26330843.924 7 138377525.213 7      2391.836 7        44.292               
G22  28029414.395 7 147303548.305 7     -2131.715 7        43.075               
G06  27363556.114 7 143804506.325 7      1414.397 7        47.564               
> 2020 12 01 09 30 46.0000000  0  4                                             
G07  28892253.316 7 151837857.850 7      3998.116 7        45.525               
G09  26330792.425 7 138377285.766 7      2392.974 7        44.238               
G22  28029449.320 7 147303761.672 7     -2138.331 7        43.003               
G06  27363523.092 7 143804364.962 7      1411.003 7        47.460               
> 2020 12 01 09 30 46.1000000  0  4                                             
G07  28892171.539 7 151837458.189 7      3996.354 7        45.582               
G09  26330742.812 7 138377046.392 7      2394.883 7        44.547               
G22  28029486.372 7 147303975.113 7     -2132.084 7        42.906               
G06  27363488.257 7 143804223.689 7      1413.468 7        47.160               
> 2020 12 01 09 30 46.2000000  0  4                                             
G07  28892092.013 7 151837058.511 7      3996.477 7        46.021               
G09  26330693.208 7 138376807.030 7      2391.863 7        44.565               
G22  28029520.350 7 147304188.525 7     -2132.586 7        42.946               
G06  27363456.173 7 143804082.440 7      1412.096 7        46.912               
> 2020 12 01 09 30 46.3000000  0  4                                             
G07  28892011.656 7 151836658.853 7      3997.213 7        46.570               
G09  26330642.379 7 138376567.679 7      2393.826 7        44.470               
G22  28029554.346 7 147304401.978 7     -2138.008 7        42.891               
G06  27363424.009 7 143803941.192 7      1409.896 7        47.102               
> 2020 12 01 09 30 46.4000000  0  4                                             
G07  28891932.031 7 151836259.165 7      3996.646 7        47.177               
G09  26330585.895 7 138376328.247 7      2392.373 7        43.994               
G22  28029590.396 7 147304615.421 7     -2135.739 7        43.113               
G06  27363391.961 7 143803799.942 7      1410.124 7        46.994               
> 2020 12 01 09 30 46.5000000  0  4                                             
G07  28891852.094 7 151835859.527 7      3996.810 7        47.246               
G09  26330534.611 7 138376088.904 7      2394.605 7        44.026               
G22  28029624.562 7 147304828.873 7     -2133.108 7        43.431               
G06  27363358.394 7 143803658.670 7      1412.953 7        46.752               
> 2020 12 01 09 30 46.6000000  0  4                                             
G07  28891770.442 7 151835459.883 7      3995.802 7        47.353               
G09  26330483.211 7 138375849.566 7      2395.937 7        44.027               
G22  28029659.004 7 147305042.292 7     -2133.674 7        43.355               
G06  27363326.426 7 143803517.410 7      1411.752 7        46.557               
> 2020 12 01 09 30 46.7000000  0  4                                             
G07  28891688.101 7 151835060.190 7      3997.086 7        47.425               
G09  26330426.709 7 138375610.087 7      2393.166 7        43.644               
G22  28029693.509 7 147305255.713 7     -2131.102 7        43.195               
G06  27363293.091 7 143803376.137 7      1410.527 7        46.316               
> 2020 12 01 09 30 46.8000000  0  4                                             
G07  28891605.895 7 151834660.490 7      3996.007 7        47.471               
G09  26330374.683 7 138375370.722 7      2391.570 7        43.711               
G22  28029727.684 7 147305469.166 7     -2134.663 7        43.144               
G06  27363260.105 7 143803234.894 7      1414.056 7        46.005               
> 2020 12 01 09 30 46.9000000  0  4                                             
G07  28891524.198 7 151834260.802 7      3997.145 7        47.261               
G09  26330325.043 7 138375131.404 7      2394.134 7        43.929               
G22  28029764.539 7 147305682.557 7     -2133.476 7        43.255               
G06  27363228.638 7 143803093.655 7      1414.606 7        45.755               
> 2020 12 01 09 30 47.0000000  0  4                                             
G07  28891441.652 7 151833861.126 7      3991.773 7        46.749               
G09  26330272.231 7 138374891.937 7      2401.131 7        43.699               
G22  28029799.893 7 147305895.969 7     -2135.112 7        43.578               
G06  27363197.242 7 143802952.421 7      1413.163 7        46.049               
> 2020 12 01 09 30 47.1000000  0  4                                             
G07  28891358.775 7 151833461.500 7      3995.356 7        46.343               
G09  26330221.653 7 138374652.640 7      2391.963 7        43.827               
G22  28029831.896 7 147306109.434 7     -2137.111 7        43.739               
G06  27363163.773 7 143802811.206 7      1411.854 7        45.829               
> 2020 12 01 09 30 47.2000000  0  4                                             
G07  28891276.095 7 151833061.851 7      3992.445 7        45.814               
G09  26330173.005 7 138374413.270 7      2392.916 7        44.346               
G22  28029865.320 7 147306322.907 7     -2134.831 7        43.740               
G06  27363131.922 7 143802669.992 7      1410.911 7        46.016               
> 2020 12 01 09 30 47.3000000  0  4                                             
G07  28891191.101 7 151832662.303 7      3996.873 7        45.320               
G09  26330122.748 7 138374173.965 7      2392.390 7        44.602               
G22  28029903.158 7 147306536.381 7     -2135.505 7        43.420               
G06  27363098.149 7 143802528.810 7      1411.920 7        46.221               
> 2020 12 01 09 30 47.4000000  0  4                                             
G07  28891109.136 7 151832262.758 7      3999.240 7        45.146               
G09  26330077.959 7 138373934.737 7      2393.189 7        44.718               
G22  28029939.798 7 147306749.860 7     -2134.755 7        43.415               
G06  27363065.762 7 143802387.646 7      1411.386 7        46.033               
> 2020 12 01 09 30 47.5000000  0  4                                             
G07  28891028.314 7 151831863.057 7      4000.863 7        45.029               
G09  26330024.004 7 138373695.318 7      2392.958 7        43.879               
G22  28029976.323 7 147306963.325 7     -2133.490 7        43.245               
G06  27363035.009 7 143802246.451 7      1413.086 7        46.006               
> 2020 12 01 09 30 47.6000000  0  4                                             
G07  28890947.913 7 151831463.273 7      3995.975 7        44.946               
G09  26329970.066 7 138373455.913 7      2399.587 7        43.557               
G22  28030011.399 7 147307176.742 7     -2135.087 7        42.866               
G06  27363003.962 7 143802105.178 7      1414.356 7        45.972               
> 2020 12 01 09 30 47.7000000  0  4                                             
G07  28890868.404 7 151831063.580 7      3998.284 7        45.266               
G09  26329920.980 7 138373216.508 7      2392.556 7        43.729               
G22  28030048.138 7 147307390.151 7     -2135.501 7        42.885               
G06  27362974.227 7 143801963.948 7      1411.610 7        45.904               
> 2020 12 01 09 30 47.8000000  0  4                                             
G07  28890788.289 7 151830663.966 7      3995.545 7        45.435               
G09  26329873.234 7 138372977.187 7      2393.289 7        44.282               
G22  28030084.984 7 147307603.626 7     -2134.328 7        42.969               
G06  27362943.001 7 143801822.805 7      1409.812 7        45.988               
> 2020 12 01 09 30 47.9000000  0  5                                             
G07  28890707.771 7 151830264.356 7      3996.453 7        45.553               
G03  26215409.687 7 137762908.401 7     -1265.430 7        45.872               
G09  26329823.111 7 138372737.917 7      2393.496 7        44.888               
G22  28030120.141 7 147307817.131 7     -2132.971 7        42.902               
G06  27362911.427 7 143801681.690 7      1410.267 7        46.082               
> 2020 12 01 09 30 48.0000000  0  6                                             
G07  28890626.699 7 151829864.750 7      3993.498 7        45.690               
G03  26215430.915 7 137763035.023 7     -1265.272 7        45.931               
G09  26329774.516 7 138372498.617 7      2391.534 7        45.427               
G19  30797094.783 6 161839847.895 6     -2048.567 6        39.904               
G22  28030154.200 7 147308030.630 7     -2134.865 7        42.804               
G06  27362879.718 7 143801540.517 7      1410.802 7        45.814               
> 2020 12 01 09 30 48.1000000  0  6                                             
G07  28890544.939 7 151829465.112 7      3995.262 7        45.689               
G03  26215449.767 7 137763161.647 7     -1266.852 7        45.829               
G09  26329720.391 7 138372259.265 7      2391.565 7        45.471               
G19  30797126.045 6 161840053.134 6     -2051.266 6        39.809               
G22  28030189.071 7 147308244.083 7     -2137.910 7        42.848               
G06  27362848.733 7 143801399.309 7      1411.737 7        45.859               
> 2020 12 01 09 30 48.2000000  0  6                                             
G07  28890463.055 7 151829065.492 7      3995.658 7        45.709               
G03  26215468.700 7 137763288.248 7     -1265.212 7        45.708               
G09  26329662.353 7 138372019.913 7      2395.751 7        44.860               
G19  30797159.147 6 161840258.376 6     -2055.569 6        39.617               
G22  28030224.345 7 147308457.536 7     -2136.455 7        43.225               
G06  27362817.069 7 143801258.148 7      1409.291 7        45.968               
> 2020 12 01 09 30 48.3000000  0  6                                             
G07  28890381.054 7 151828665.851 7      3992.794 7        46.005               
G03  26215486.881 7 137763414.835 7     -1265.843 7        45.673               
G09  26329610.372 7 138371780.526 7      2394.746 7        44.125               
G19  30797192.053 6 161840463.596 6     -2055.024 6        39.728               
G22  28030259.413 7 147308670.987 7     -2133.872 7        43.216               
G06  27362784.861 7 143801116.994 7      1414.181 7        46.462               
> 2020 12 01 09 30 48.4000000  0  6                                             
G07  28890300.643 7 151828266.152 7      3997.336 7        46.157               
G03  26215503.187 7 137763541.402 7     -1266.149 7        45.643               
G09  26329551.136 7 138371541.176 7      2392.576 7        43.467               
G19  30797225.200 6 161840668.776 6     -2053.121 6        39.861               
G22  28030293.658 7 147308884.413 7     -2135.875 7        43.036               
G06  27362754.483 7 143800975.798 7      1412.653 7        46.697               
> 2020 12 01 09 30 48.5000000  0  6                                             
G07  28890219.232 7 151827866.478 7      3999.649 7        46.115               
G03  26215520.877 7 137763668.016 7     -1265.248 7        45.340               
G09  26329498.958 7 138371301.863 7      2391.048 7        42.906               
G19  30797258.579 6 161840873.998 6     -2049.464 6        39.787               
G22  28030329.003 7 147309097.809 7     -2132.168 7        42.752               
G06  27362723.561 7 143800834.599 7      1411.603 7        46.720               
> 2020 12 01 09 30 48.6000000  0  6                                             
G07  28890137.338 7 151827466.794 7      3995.204 7        45.653               
G03  26215537.888 7 137763794.612 7     -1264.965 7        45.320               
G09  26329450.024 7 138371062.508 7      2392.305 7        42.513               
G19  30797289.359 6 161841079.203 6     -2057.516 6        39.539               
G22  28030365.197 7 147309311.239 7     -2132.760 7        42.811               
G06  27362691.137 7 143800693.419 7      1411.399 7        47.027               
> 2020 12 01 09 30 48.7000000  0  6                                             
G07  28890054.042 7 151827067.086 7      3996.086 7        45.297               
G03  26215556.240 7 137763921.146 7     -1263.004 7        45.356               
G09  26329403.958 7 138370823.059 7      2394.367 7        42.791               
G19  30797320.236 6 161841284.398 6     -2050.871 6        39.673               
G22  28030399.774 7 147309524.651 7     -2130.782 7        42.999               
G06  27362658.464 7 143800552.219 7      1413.566 7        46.823               
> 2020 12 01 09 30 48.8000000  0  6                                             
G07  28889972.952 7 151826667.354 7      3998.369 7        44.954               
G03  26215577.701 7 137764047.684 7     -1266.049 7        45.645               
G09  26329356.328 7 138370583.615 7      2393.387 7        43.487               
G19  30797352.195 6 161841489.547 6     -2052.875 6        39.491               
G22  28030433.868 7 147309738.064 7     -2134.255 7        42.959               
G06  27362625.281 7 143800410.970 7      1411.317 7        46.621               
> 2020 12 01 09 30 48.9000000  0  6                                             
G07  28889889.807 7 151826267.637 7      3997.722 7        44.498               
G03  26215596.919 7 137764174.255 7     -1264.396 7        45.435               
G09  26329308.144 7 138370344.198 7      2397.585 7        43.590               
G19  30797387.799 6 161841694.723 6     -2052.706 6        39.167               
G22  28030468.748 7 147309951.465 7     -2133.089 7        43.081               
G06  27362591.857 7 143800269.762 7      1412.623 7        46.728               
> 2020 12 01 09 30 49.0000000  0  6                                             
G07  28889807.717 7 151825867.910 7      3993.860 7        44.437               
G03  26215616.271 7 137764300.801 7     -1265.965 7        45.571               
G09  26329253.911 7 138370104.751 7      2391.894 7        43.514               
G19  30797422.277 6 161841899.874 6     -2052.870 6        38.959               
G22  28030505.844 7 147310164.866 7     -2132.159 7        43.198               
G06  27362557.861 7 143800128.598 7      1410.567 7        46.712               
> 2020 12 01 09 30 49.1000000  0  6                                             
G07  28889727.396 7 151825468.195 7      3994.510 7        44.643               
G03  26215636.141 7 137764427.318 7     -1263.762 7        45.576               
G09  26329202.475 7 138369865.273 7      2395.594 7        42.799               
G19  30797455.147 6 161842104.987 6     -2053.798 6        38.797               
G22  28030540.465 7 147310378.217 7     -2132.483 7        43.399               
G06  27362525.375 7 143799987.385 7      1411.529 7        46.698               
> 2020 12 01 09 30 49.2000000  0  6                                             
G07  28889647.155 7 151825068.371 7      3998.912 7        45.104               
G03  26215654.796 7 137764553.772 7     -1263.455 7        45.593               
G09  26329154.881 7 138369625.856 7      2392.614 7        42.866               
G19  30797490.787 6 161842310.082 6     -2043.959 6        38.868               
G22  28030576.445 7 147310591.524 7     -2132.192 7        43.887               
G06  27362494.033 7 143799846.083 7      1413.360 7        46.962               
> 2020 12 01 09 30 49.3000000  0  6                                             
G07  28889567.227 7 151824668.601 7      3995.872 7        45.730               
G03  26215672.085 7 137764680.317 7     -1264.954 7        45.610               
G09  26329105.509 7 138369386.431 7      2394.559 7        43.135               
G19  30797525.346 6 161842515.199 6     -2046.140 6        38.783               
G22  28030608.877 7 147310804.910 7     -2131.164 7        44.024               
G06  27362462.191 7 143799704.899 7      1411.005 7        47.007               
> 2020 12 01 09 30 49.4000000  0  6                                             
G07  28889486.611 7 151824268.886 7      3998.448 7        46.005               
G03  26215688.301 7 137764806.890 7     -1263.832 7        45.649               
G09  26329053.269 7 138369147.011 7      2395.146 7        43.273               
G19  30797559.672 6 161842720.381 6     -2056.229 6        38.709               
G22  28030644.374 7 147311018.289 7     -2133.634 7        43.989               
G06  27362429.088 7 143799563.738 7      1410.171 7        46.977               
> 2020 12 01 09 30 49.5000000  0  6                                             
G07  28889406.852 7 151823869.186 7      3997.858 7        46.260               
G03  26215705.241 7 137764933.468 7     -1266.931 7        45.626               
G09  26329003.977 7 138368907.651 7      2393.444 7        43.895               
G19  30797596.036 6 161842925.572 6     -2050.218 6        38.838               
G22  28030680.675 7 147311231.696 7     -2134.531 7        44.034               
G06  27362394.431 7 143799422.536 7      1412.274 7        46.770               
> 2020 12 01 09 30 49.6000000  0  6                                             
G07  28889325.262 7 151823469.440 7      3996.895 7        46.621               
G03  26215725.504 7 137765060.068 7     -1266.405 7        45.616               
G09  26328953.542 7 138368668.276 7      2393.051 7        44.067               
G19  30797630.041 6 161843130.747 6     -2052.575 6        38.974               
G22  28030717.065 7 147311445.129 7     -2134.102 7        44.109               
G06  27362361.365 7 143799281.345 7      1410.636 7        46.789               
> 2020 12 01 09 30 49.7000000  0  6                                             
G07  28889243.136 7 151823069.692 7      3996.935 7        46.866               
G03  26215745.812 7 137765186.626 7     -1268.392 7        45.621               
G09  26328900.775 7 138368428.851 7      2397.955 7        43.961               
G19  30797665.278 6 161843335.901 6     -2045.091 6        39.168               
G22  28030750.569 7 147311658.528 7     -2134.971 7        44.237               
G06  27362330.264 7 143799140.200 7      1412.556 7        47.013               
> 2020 12 01 09 30 49.8000000  0  6                                             
G07  28889160.439 7 151822670.042 7      3996.424 7        46.733               
G03  26215765.951 7 137765313.249 7     -1269.367 7        45.725               
G09  26328851.260 7 138368189.480 7      2392.915 7        44.025               
G19  30797699.122 6 161843541.128 6     -2057.145 6        39.218               
G22  28030786.316 7 147311871.980 7     -2136.168 7        44.255               
G06  27362298.242 7 143798999.077 7      1411.165 7        47.171               
> 2020 12 01 09 30 49.9000000  0  6                                             
G07  28889077.848 7 151822270.454 7      3996.718 7        46.319               
G03  26215786.232 7 137765439.957 7     -1266.860 7        45.842               
G09  26328799.940 7 138367950.205 7      2395.421 7        44.034               
G19  30797731.420 6 161843746.393 6     -2053.492 6        39.265               
G22  28030823.064 7 147312085.517 7     -2134.175 7        44.208               
G06  27362266.596 7 143798858.026 7      1411.062 7        47.516               
> 2020 12 01 09 30 50.0000000  0  6                                             
G07  28888994.489 7 151821870.789 7      3997.034 7        46.024               
G03  26215804.360 7 137765566.618 7     -1265.303 7        45.865               
G09  26328751.023 7 138367710.865 7      2391.596 7        44.022               
G19  30797766.783 6 161843951.636 6     -2052.523 6        39.290               
G22  28030857.935 7 147312298.977 7     -2133.803 7        44.184               
G06  27362232.690 7 143798716.930 7      1410.400 7        47.751               
> 2020 12 01 09 30 50.1000000  0  6                                             
G07  28888911.228 7 151821471.190 7      3996.316 7        45.682               
G03  26215820.952 7 137765693.335 7     -1266.861 7        45.725               
G09  26328702.223 7 138367471.668 7      2392.799 7        44.173               
G19  30797801.637 6 161844156.934 6     -2060.669 6        39.328               
G22  28030892.503 7 147312512.523 7     -2137.856 7        44.116               
G06  27362199.123 7 143798575.912 7      1408.670 7        47.746               
> 2020 12 01 09 30 50.2000000  0  6                                             
G07  28888828.396 7 151821071.573 7      3998.780 7        45.346               
G03  26215836.444 7 137765820.018 7     -1269.394 7        45.547               
G09  26328651.618 7 138367232.425 7      2391.302 7        44.410               
G19  30797836.991 6 161844362.200 6     -2052.118 6        39.196               
G22  28030928.009 7 147312726.077 7     -2135.347 7        44.096               
G06  27362166.798 7 143798434.894 7      1409.191 7        47.544               
> 2020 12 01 09 30 50.3000000  0  6                                             
G07  28888744.385 7 151820671.956 7      3997.081 7        44.956               
G03  26215856.582 7 137765946.740 7     -1269.312 7        45.825               
G09  26328600.173 7 138366993.151 7      2391.857 7        44.417               
G19  30797870.933 6 161844567.486 6     -2050.486 6        39.336               
G22  28030961.719 7 147312939.623 7     -2135.182 7        44.137               
G06  27362136.018 7 143798293.902 7      1409.748 7        47.974               
> 2020 12 01 09 30 50.4000000  0  6                                             
G07  28888663.036 7 151820272.349 7      3998.404 7        44.895               
G03  26215872.906 7 137766073.417 7     -1265.188 7        45.653               
G09  26328548.290 7 138366753.773 7      2394.088 7        44.143               
G19  30797902.695 6 161844772.746 6     -2050.727 6        39.685               
G22  28030997.448 7 147313153.106 7     -2136.596 7        44.093               
G06  27362104.774 8 143798152.833 8      1410.825 8        48.507               
> 2020 12 01 09 30 50.5000000  0  6                                             
G07  28888582.260 7 151819872.724 7      3996.016 7        45.013               
G03  26215894.152 7 137766200.098 7     -1267.906 7        45.565               
G09  26328498.391 7 138366514.525 7      2391.354 7        44.531               
G19  30797935.404 6 161844978.009 6     -2059.996 6        39.815               
G22  28031032.963 7 147313366.584 7     -2134.410 7        44.154               
G06  27362071.368 8 143798011.769 8      1412.856 8        48.518               
> 2020 12 01 09 30 50.6000000  0  6                                             
G07  28888501.751 7 151819473.145 7      3993.104 7        45.281               
G03  26215914.156 7 137766326.820 7     -1269.415 7        45.530               
G09  26328445.025 7 138366275.306 7      2394.568 7        44.259               
G19  30797970.294 6 161845183.275 6     -2052.103 6        39.880               
G22  28031066.798 7 147313580.094 7     -2134.367 7        44.292               
G06  27362037.641 8 143797870.778 8      1411.248 8        48.090               
> 2020 12 01 09 30 50.7000000  0  6                                             
G07  28888418.669 7 151819073.622 7      3995.724 7        45.267               
G03  26215933.920 7 137766453.574 7     -1268.718 7        45.810               
G09  26328393.295 7 138366036.043 7      2390.509 7        44.059               
G19  30798001.850 6 161845388.587 6     -2052.082 6        39.799               
G22  28031101.017 7 147313793.663 7     -2137.839 7        43.984               
G06  27362002.313 7 143797729.819 7      1409.665 7        47.642               
> 2020 12 01 09 30 50.8000000  0  6                                             
G07  28888338.133 7 151818674.032 7      3997.752 7        45.263               
G03  26215954.451 7 137766580.312 7     -1266.472 7        45.868               
G09  26328344.244 7 138365796.798 7      2391.039 7        44.280               
G19  30798033.505 6 161845593.892 6     -2058.523 6        39.619               
G22  28031136.916 7 147314007.207 7     -2135.949 7        43.736               
G06  27361969.274 7 143797588.840 7      1407.225 7        47.646               
> 2020 12 01 09 30 50.9000000  0  6                                             
G07  28888256.793 7 151818274.505 7      3996.524 7        45.536               
G03  26215970.346 7 137766707.103 7     -1265.677 7        45.878               
G09  26328295.408 7 138365557.618 7      2392.503 7        44.298               
G19  30798063.740 6 161845799.245 6     -2057.744 6        39.233               
G22  28031172.100 7 147314220.815 7     -2134.725 7        44.021               
G06  27361937.476 7 143797447.919 7      1410.274 7        47.707               
> 2020 12 01 09 30 51.2000000  0  6                                             
G07  28888015.409 7 151817075.981 7      3996.443 7        45.876               
G03  26216022.139 7 137767087.523 7     -1268.606 7        45.620               
G09  26328143.057 7 138364840.083 7      2392.514 7        45.303               
G19  30798162.189 6 161846415.337 6     -2057.235 6        39.439               
G22  28031271.192 7 147314861.665 7     -2136.200 7        43.622               
G06  27361837.034 7 143797025.228 7      1410.382 7        46.845               
> 2020 12 01 09 30 51.3000000  0  6                                             
G07  28887935.982 7 151816676.533 7      3996.297 7        46.026               
G03  26216042.697 7 137767214.409 7     -1270.740 7        45.615               
G09  26328090.835 7 138364600.888 7      2391.289 7        45.184               
G19  30798193.344 6 161846620.751 6     -2057.367 6        39.673               
G22  28031307.922 7 147315075.380 7     -2138.984 7        43.366               
G06  27361804.334 7 143796884.384 7      1408.015 7        46.529               
> 2020 12 01 09 30 51.4000000  0  6                                             
G07  28887855.187 7 151816277.114 7      3996.025 7        46.050               
G03  26216063.524 7 137767341.287 7     -1270.634 7        45.637               
G09  26328039.658 7 138364361.753 7      2390.325 7        45.310               
G19  30798228.152 6 161846826.151 6     -2055.201 6        39.806               
G22  28031342.972 7 147315289.046 7     -2135.390 7        43.398               
G06  27361770.847 7 143796743.577 7      1411.859 7        46.407               
> 2020 12 01 09 30 51.5000000  0  6                                             
G07  28887773.722 7 151815877.620 7      3992.005 7        45.934               
G03  26216082.268 7 137767468.125 7     -1267.944 7        45.370               
G09  26327988.874 7 138364122.529 7      2390.213 7        45.198               
G19  30798260.415 6 161847031.550 6     -2053.198 6        39.660               
G22  28031376.253 7 147315502.707 7     -2139.645 7        42.823               
G06  27361740.497 7 143796602.738 7      1408.139 7        46.609               
> 2020 12 01 09 30 51.6000000  0  6                                             
G07  28887689.478 7 151815478.189 7      3996.112 7        45.655               
G03  26216101.343 7 137767595.083 7     -1274.454 7        45.552               
G09  26327935.803 7 138363883.610 7      2391.325 7        44.537               
G19  30798296.394 6 161847237.010 6     -2048.328 6        39.980               
G22  28031414.761 7 147315716.471 7     -2143.671 7        42.793               
G06  27361706.983 7 143796461.965 7      1407.895 7        46.489               
> 2020 12 01 09 30 51.7000000  0  6                                             
G07  28887607.835 7 151815078.784 7      3995.506 7        45.444               
G03  26216118.658 7 137767722.036 7     -1267.547 7        45.653               
G09  26327885.046 7 138363644.576 7      2390.710 7        44.505               
G19  30798333.401 6 161847442.488 6     -2053.364 6        40.157               
G22  28031453.090 7 147315930.222 7     -2137.116 7        43.038               
G06  27361674.980 7 143796321.200 7      1409.694 7        46.515               
> 2020 12 01 09 30 51.9000000  0  6                                             
G07  28887444.333 7 151814279.962 7      3993.624 7        45.605               
G03  26216156.550 7 137767975.927 7     -1272.853 7        45.735               
G09  26327784.792 7 138363166.462 7      2388.445 7        44.624               
G19  30798401.661 6 161847853.435 6     -2050.329 6        39.951               
G22  28031522.931 7 147316357.720 7     -2136.675 7        43.274               
G06  27361608.918 7 143796039.729 7      1408.988 7        46.431               
> 2020 12 01 09 30 52.0000000  0  6                                             
G07  28887364.557 7 151813880.607 7      3993.699 7        45.972               
G03  26216177.448 7 137768102.947 7     -1271.079 7        45.986               
G09  26327728.326 7 138362927.492 7      2384.429 7        44.208               
G19  30798438.810 6 161848058.993 6     -2051.680 6        39.842               
G22  28031559.545 7 147316571.537 7     -2136.724 7        43.361               
G06  27361579.068 7 143795899.049 7      1406.860 7        46.472               
> 2020 12 01 09 30 52.1000000  0  6                                             
G07  28887284.557 7 151813481.261 7      3991.466 7        46.409               
G03  26216198.837 7 137768230.024 7     -1271.081 7        45.921               
G09  26327674.013 7 138362688.571 7      2387.645 7        43.284               
G19  30798473.271 6 161848264.532 6     -2061.864 6        39.681               
G22  28031596.784 7 147316785.362 7     -2139.887 7        43.373               
G06  27361547.690 7 143795758.396 7      1404.544 7        46.654               
> 2020 12 01 09 30 52.2000000  0  6                                             
G07  28887202.619 7 151813081.899 7      3991.104 7        46.429               
G03  26216216.402 7 137768357.021 7     -1269.017 7        45.789               
G09  26327622.657 7 138362449.626 7      2391.147 7        43.182               
G19  30798505.292 6 161848470.104 6     -2056.465 6        39.382               
G22  28031632.602 7 147316999.180 7     -2136.976 7        43.601               
G06  27361516.651 7 143795617.763 7      1405.884 7        46.888               
> 2020 12 01 09 30 52.3000000  0  6                                             
G07  28887119.591 7 151812682.582 7      3994.974 7        45.768               
G03  26216235.584 7 137768484.030 7     -1270.785 7        45.658               
G09  26327574.661 7 138362210.504 7      2387.860 7        43.735               
G19  30798536.545 6 161848675.612 6     -2050.502 6        39.341               
G22  28031669.806 7 147317212.975 7     -2138.922 7        43.728               
G06  27361483.245 7 143795477.078 7      1408.215 7        46.861               
> 2020 12 01 09 30 52.4000000  0  6                                             
G07  28887035.088 7 151812283.321 7      3995.084 7        44.817               
G03  26216251.854 7 137768611.080 7     -1268.177 7        45.824               
G09  26327527.103 7 138361971.645 7      2385.893 7        44.003               
G19  30798572.381 6 161848881.181 6     -2055.171 6        39.324               
G22  28031702.640 7 147317426.830 7     -2140.938 7        43.830               
G06  27361451.269 7 143795336.434 7      1406.187 7        46.646               
> 2020 12 01 09 30 52.9000000  0  6                                             
G07  28886633.312 7 151810286.873 7      3992.020 7        46.146               
G03  26216342.128 7 137769246.425 7     -1271.122 7        45.305               
G09  26327272.630 7 138360776.920 7      2388.321 7        44.184               
G19  30798732.711 6 161849909.053 6     -2062.930 6        38.575               
G22  28031878.069 7 147318496.085 7     -2142.010 7        44.351               
G06  27361287.490 7 143794633.479 7      1407.678 7        46.133               
> 2020 12 01 09 30 53.0000000  0  6                                             
G07  28886554.090 7 151809887.541 7      3993.078 7        46.642               
G03  26216362.740 7 137769373.466 7     -1272.011 7        45.271               
G09  26327223.767 7 138360537.975 7      2388.939 7        44.121               
G19  30798767.198 6 161850114.596 6     -2061.150 6        38.302               
G22  28031911.118 7 147318709.906 7     -2132.214 7        44.443               
G06  27361254.522 7 143794492.808 7      1405.896 7        45.858               
> 2020 12 01 09 30 53.1000000  0  6                                             
G07  28886472.205 7 151809488.224 7      3994.443 7        47.041               
G03  26216382.244 7 137769500.522 7     -1270.770 7        45.298               
G09  26327172.027 7 138360299.026 7      2387.838 7        44.193               
G19  30798800.953 6 161850320.124 6     -2050.664 6        38.192               
G22  28031946.525 7 147318923.728 7     -2137.139 7        44.438               
G06  27361222.286 7 143794352.217 7      1404.684 7        45.632               
> 2020 12 01 09 30 53.2000000  0  6                                             
G07  28886391.759 7 151809088.914 7      3992.203 7        47.352               
G03  26216400.596 7 137769627.613 7     -1268.549 7        45.196               
G09  26327119.332 7 138360060.102 7      2387.502 7        44.289               
G19  30798830.785 6 161850525.718 6     -2060.729 6        38.166               
G22  28031979.771 7 147319137.584 7     -2138.615 7        44.221               
G06  27361193.553 7 143794211.647 7      1408.426 7        45.872               
> 2020 12 01 09 30 53.3000000  0  6                                             
G07  28886308.864 7 151808689.579 7      3994.911 7        47.504               
G03  26216418.706 7 137769754.659 7     -1271.048 7        45.101               
G09  26327065.939 7 138359821.044 7      2388.954 7        43.642               
G19  30798864.290 6 161850731.258 6     -2061.655 6        38.136               
G22  28032014.981 7 147319351.428 7     -2139.185 7        43.879               
G06  27361164.685 7 143794071.022 7      1406.659 7        46.392               
> 2020 12 01 09 30 53.4000000  0  6                                             
G07  28886225.916 7 151808290.235 7      3995.756 7        47.301               
G03  26216435.968 7 137769881.697 7     -1269.863 7        45.128               
G09  26327013.752 7 138359582.080 7      2386.752 7        43.886               
G19  30798899.331 6 161850936.772 6     -2061.660 6        38.168               
G22  28032046.958 7 147319565.227 7     -2140.062 7        43.479               
G06  27361135.291 7 143793930.416 7      1405.305 7        46.773               
> 2020 12 01 09 30 53.5000000  0  6                                             
G07  28886142.584 7 151807890.870 7      3992.727 7        46.887               
G03  26216454.239 7 137770008.736 7     -1270.512 7        45.085               
G09  26326962.960 7 138359343.146 7      2390.367 7        44.190               
G19  30798935.873 6 161851142.299 6     -2060.087 6        38.300               
G22  28032083.286 7 147319779.034 7     -2138.474 7        43.526               
G06  27361103.895 7 143793789.819 7      1405.468 7        46.928               
> 2020 12 01 09 30 53.6000000  0  6                                             
G07  28886058.823 7 151807491.558 7      3993.190 7        46.739               
G03  26216472.956 7 137770135.836 7     -1271.825 7        44.982               
G09  26326912.489 7 138359104.197 7      2391.324 7        44.261               
G19  30798968.850 6 161851347.852 6     -2058.507 6        38.395               
G22  28032119.801 7 147319992.903 7     -2143.306 7        43.629               
G06  27361068.460 7 143793649.202 7      1406.364 7        46.762               
> 2020 12 01 09 30 53.7000000  0  6                                             
G07  28885977.358 7 151807092.191 7      3995.725 7        46.688               
G03  26216492.916 7 137770262.840 7     -1272.204 7        44.995               
G09  26326860.499 7 138358865.183 7      2391.624 7        44.195               
G19  30799004.151 6 161851553.341 6     -2050.044 6        38.287               
G22  28032155.986 7 147320206.700 7     -2134.523 7        43.716               
G06  27361035.635 7 143793508.576 7      1406.111 7        46.734               
> 2020 12 01 09 30 53.8000000  0  6                                             
G07  28885896.938 7 151806692.867 7      3990.759 7        46.862               
G03  26216512.474 7 137770389.869 7     -1270.232 7        44.903               
G09  26326810.680 7 138358626.216 7      2392.112 7        44.226               
G19  30799039.022 6 161851758.859 6     -2052.291 6        38.295               
G22  28032191.912 7 147320420.518 7     -2137.266 7        43.372               
G06  27361001.943 7 143793367.976 7      1406.863 7        46.574               
> 2020 12 01 09 30 53.9000000  0  6                                             
G07  28885815.688 7 151806293.480 7      3996.102 7        47.042               
G03  26216530.370 7 137770516.898 7     -1270.537 7        45.009               
G09  26326760.986 7 138358387.236 7      2388.944 7        44.204               
G19  30799072.357 6 161851964.352 6     -2052.253 6        38.472               
G22  28032225.666 7 147320634.306 7     -2138.208 7        43.038               
G06  27360969.171 7 143793227.329 7      1406.539 7        46.667               
> 2020 12 01 09 30 54.0000000  0  6                                             
G07  28885733.982 7 151805894.049 7      3994.173 7        46.956               
G03  26216549.239 7 137770643.916 7     -1271.269 7        44.979               
G09  26326709.202 7 138358148.233 7      2389.275 7        44.409               
G19  30799105.772 6 161852169.830 6     -2052.226 6        38.853               
G22  28032259.867 7 147320848.086 7     -2137.057 7        42.771               
G06  27360937.775 7 143793086.703 7      1405.118 7        47.034               
> 2020 12 01 09 30 54.1000000  0  6                                             
G07  28885654.268 7 151805494.768 7      3990.416 7        47.039               
G03  26216567.189 7 137770770.977 7     -1272.989 7        45.083               
G09  26326659.678 7 138357909.288 7      2385.542 7        44.535               
G19  30799141.528 6 161852375.353 6     -2052.616 6        38.829               
G22  28032294.185 7 147321061.896 7     -2141.399 7        42.491               
G06  27360907.809 7 143792946.142 7      1405.541 7        47.499               
> 2020 12 01 09 30 54.2000000  0  6                                             
G07  28885574.072 7 151805095.525 7      3990.599 7        47.486               
G03  26216584.468 7 137770898.080 7     -1272.232 7        44.934               
G09  26326610.404 7 138357670.369 7      2387.377 7        44.532               
G19  30799179.928 6 161852580.914 6     -2050.543 6        38.921               
G22  28032327.421 7 147321275.770 7     -2135.065 7        42.205               
G06  27360876.172 7 143792805.592 7      1404.506 7        47.422               
> 2020 12 01 09 30 54.3000000  0  6                                             
G07  28885491.562 7 151804696.231 7      3995.880 7        47.089               
G03  26216602.507 7 137771025.240 7     -1272.148 7        44.893               
G09  26326557.905 7 138357431.442 7      2389.287 7        44.240               
G19  30799213.540 6 161852786.527 6     -2056.902 6        38.842               
G22  28032363.133 6 147321489.681 6     -2138.073 6        41.928               
G06  27360842.944 7 143792665.084 7      1402.934 7        47.346               
> 2020 12 01 09 30 54.4000000  0  6                                             
G07  28885408.560 7 151804296.880 7      3991.790 7        46.331               
G03  26216622.073 7 137771152.424 7     -1273.212 7        45.136               
G09  26326507.201 7 138357192.564 7      2386.462 7        44.067               
G19  30799246.803 6 161852992.136 6     -2054.115 6        38.960               
G22  28032400.050 7 147321703.571 7     -2138.243 7        42.264               
G06  27360808.028 7 143792524.590 7      1402.971 7        47.245               
> 2020 12 01 09 30 54.5000000  0  6                                             
G07  28885328.614 7 151803897.696 7      3989.892 7        46.371               
G03  26216642.140 7 137771279.598 7     -1271.412 7        45.244               
G09  26326459.160 7 138356953.729 7      2390.961 7        44.357               
G19  30799277.663 6 161853197.755 6     -2056.638 6        39.106               
G22  28032439.487 7 147321917.519 7     -2139.046 7        42.693               
G06  27360775.551 7 143792384.176 7      1403.824 7        47.161               
> 2020 12 01 09 30 54.6000000  0  6                                             
G07  28885248.632 7 151803498.578 7      3991.074 7        46.813               
G03  26216662.359 7 137771406.817 7     -1270.190 7        45.192               
G09  26326406.911 7 138356714.900 7      2386.861 7        44.612               
G19  30799309.818 6 161853403.444 6     -2062.005 6        39.103               
G22  28032475.529 7 147322131.520 7     -2140.619 7        43.110               
G06  27360743.012 7 143792243.792 7      1402.843 7        46.972               
> 2020 12 01 09 30 54.7000000  0  6                                             
G07  28885167.927 7 151803099.392 7      3993.095 7        46.950               
G03  26216679.326 7 137771534.009 7     -1272.362 7        44.860               
G09  26326357.504 7 138356476.118 7      2388.502 7        44.935               
G19  30799341.276 6 161853609.083 6     -2056.590 6        38.678               
G22  28032510.570 7 147322345.477 7     -2140.414 7        43.002               
G06  27360710.615 7 143792103.317 7      1401.008 7        46.888               
> 2020 12 01 09 30 54.8000000  0  6                                             
G07  28885086.042 7 151802700.184 7      3992.164 7        47.029               
G03  26216700.152 7 137771661.247 7     -1274.686 7        44.799               
G09  26326306.371 7 138356237.176 7      2387.030 7        44.928               
G19  30799375.362 6 161853814.770 6     -2053.353 6        38.454               
G22  28032544.190 7 147322559.444 7     -2142.149 7        43.111               
G06  27360677.853 7 143791962.929 7      1405.356 7        46.897               
> 2020 12 01 09 30 54.9000000  0  6                                             
G07  28885004.417 7 151802301.012 7      3988.612 7        46.759               
G03  26216718.906 7 137771788.514 7     -1272.057 7        44.878               
G09  26326256.615 7 138355998.458 7      2389.303 7        45.202               
G19  30799406.811 6 161854020.443 6     -2051.306 6        38.553               
G22  28032579.187 7 147322773.459 7     -2137.993 7        43.369               
G06  27360645.277 7 143791822.587 7      1404.165 7        46.910               
> 2020 12 01 09 30 55.0000000  0  6                                             
G07  28884922.085 7 151801901.802 7      3989.368 7        46.523               
G03  26216735.390 7 137771915.737 7     -1270.753 7        45.043               
G09  26326203.776 7 138355759.643 7      2388.088 7        44.928               
G19  30799440.646 6 161854226.118 6     -2053.765 6        38.495               
G22  28032614.389 7 147322987.397 7     -2137.011 7        43.202               
G06  27360613.890 7 143791682.205 7      1404.154 7        47.151               
> 2020 12 01 09 30 55.1000000  0  6                                             
G07  28884840.558 7 151801502.664 7      3993.641 7        46.709               
G03  26216752.580 7 137772043.031 7     -1273.282 7        44.821               
G09  26326152.769 7 138355520.907 7      2386.487 7        44.639               
G19  30799475.214 6 161854431.863 6     -2056.524 6        38.367               
G22  28032650.833 7 147323201.478 7     -2140.065 7        43.462               
G06  27360582.530 7 143791541.888 7      1403.295 7        47.247               
> 2020 12 01 09 30 55.2000000  0  6                                             
G07  28884760.987 7 151801103.541 7      3991.472 7        46.914               
G03  26216771.735 7 137772170.357 7     -1271.403 7        44.581               
G09  26326099.609 7 138355282.263 7      2385.367 7        44.324               
G19  30799507.709 6 161854637.593 6     -2055.762 6        38.139               
G22  28032685.427 7 147323415.552 7     -2137.232 7        43.593               
G06  27360553.020 7 143791401.564 7      1401.809 7        47.703               
> 2020 12 01 09 30 55.3000000  0  6                                             
G07  28884680.094 7 151800704.417 7      3993.269 7        47.069               
G03  26216790.221 7 137772297.649 7     -1272.000 7        44.779               
G09  26326046.225 7 138355043.373 7      2386.478 7        44.010               
G19  30799542.071 6 161854843.326 6     -2057.137 6        37.893               
G22  28032720.736 7 147323629.586 7     -2140.093 7        43.757               
G06  27360522.615 7 143791261.275 7      1404.144 7        47.967               
> 2020 12 01 09 30 55.4000000  0  6                                             
G07  28884599.236 7 151800305.307 7      3989.378 7        46.976               
G03  26216812.843 7 137772424.969 7     -1274.197 7        44.787               
G09  26325997.068 7 138354804.662 7      2384.047 7        44.322               
G19  30799576.290 6 161855049.050 6     -2055.423 6        37.661               
G22  28032756.582 7 147323843.609 7     -2137.260 7        43.845               
G06  27360489.325 7 143791120.973 7      1404.329 7        47.826               
> 2020 12 01 09 30 55.5000000  0  6                                             
G07  28884515.011 7 151799906.170 7      3991.475 7        46.577               
G03  26216831.632 7 137772552.227 7     -1274.286 7        45.163               
G09  26325942.603 7 138354565.950 7      2384.655 7        43.931               
G19  30799613.109 6 161855254.744 6     -2057.601 6        37.660               
G22  28032793.642 7 147324057.627 7     -2141.531 7        44.172               
G06  27360454.883 7 143790980.625 7      1404.341 7        47.457               
> 2020 12 01 09 30 55.6000000  0  6                                             
G07  28884432.670 7 151799507.010 7      3989.970 7        46.232               
G03  26216849.761 7 137772679.509 7     -1272.543 7        45.249               
G09  26325891.765 7 138354327.149 7      2383.473 7        43.434               
G19  30799651.313 6 161855460.453 6     -2052.625 6        37.688               
G22  28032828.737 7 147324271.668 7     -2144.170 7        44.325               
G06  27360421.825 7 143790840.307 7      1402.149 7        47.297               
> 2020 12 01 09 30 55.7000000  0  6                                             
G07  28884350.392 7 151799107.870 7      3989.690 7        46.494               
G03  26216867.379 7 137772806.845 7     -1269.590 7        45.263               
G09  26325842.527 7 138354088.470 7      2385.663 7        43.692               
G19  30799683.111 6 161855666.235 6     -2060.308 6        37.560               
G22  28032863.912 7 147324485.748 7     -2139.906 7        44.054               
G06  27360392.216 7 143790700.034 7      1403.511 7        47.538               
> 2020 12 01 09 30 55.8000000  0  6                                             
G07  28884268.213 7 151798708.785 7      3992.839 7        46.826               
G03  26216886.178 7 137772934.221 7     -1273.045 7        45.394               
G09  26325793.530 7 138353849.804 7      2386.395 7        44.368               
G19  30799715.025 6 161855872.018 6     -2051.987 6        37.282               
G22  28032897.720 7 147324699.865 7     -2135.760 7        44.117               
G06  27360359.257 7 143790559.798 7      1398.933 7        47.385               
> 2020 12 01 09 30 55.9000000  0  6                                             
G07  28884186.980 7 151798309.700 7      3989.060 7        46.933               
G03  26216902.662 7 137773061.605 7     -1273.570 7        45.485               
G09  26325744.587 7 138353611.198 7      2384.461 7        44.413               
G19  30799751.317 6 161856077.766 6     -2058.034 6        36.767               
G22  28032932.931 7 147324913.941 7     -2141.519 7        44.160               
G06  27360327.441 7 143790419.549 7      1401.392 7        47.391               
> 2020 12 01 09 30 56.0000000  0  6                                             
G07  28884104.559 7 151797910.657 7      3991.612 7        46.693               
G03  26216923.622 7 137773188.929 7     -1272.322 7        45.684               
G09  26325696.394 7 138353372.478 7      2388.399 7        44.737               
G19  30799788.654 6 161856283.577 6     -2049.972 6        36.793               
G22  28032968.884 7 147325128.028 7     -2140.929 7        43.966               
G06  27360294.276 7 143790279.328 7      1403.262 7        47.340               
> 2020 12 01 09 30 56.1000000  0  6                                             
G07  28884022.648 7 151797511.571 7      3989.092 7        46.446               
G03  26216944.395 7 137773316.330 7     -1275.074 7        45.441               
G09  26325645.334 7 138353133.775 7      2386.533 7        45.020               
G19  30799820.416 6 161856489.326 6     -2056.873 6        36.743               
G22  28033005.113 7 147325342.144 7     -2141.799 7        43.952               
G06  27360262.648 7 143790139.058 7      1402.758 7        47.285               
> 2020 12 01 09 30 56.2000000  0  6                                             
G07  28883941.674 7 151797112.444 7      3992.662 7        46.625               
G03  26216963.774 7 137773443.658 7     -1272.387 7        45.189               
G09  26325594.353 7 138352895.015 7      2387.423 7        44.858               
G19  30799854.859 6 161856695.077 6     -2054.673 6        36.750               
G22  28033038.072 7 147325556.231 7     -2136.647 7        43.957               
G06  27360227.946 7 143789998.834 7      1404.552 7        46.866               
> 2020 12 01 09 30 56.3000000  0  6                                             
G07  28883861.085 7 151796713.345 7      3993.301 7        46.562               
G03  26216982.778 7 137773571.082 7     -1272.932 7        45.346               
G09  26325544.141 7 138352656.417 7      2386.961 7        45.194               
G19  30799885.344 6 161856900.851 6     -2054.353 6        36.388               
G22  28033071.380 7 147325770.369 7     -2139.875 7        43.606               
G06  27360194.344 7 143789858.649 7      1400.170 7        46.811               
> 2020 12 01 09 30 56.4000000  0  6                                             
G07  28883779.692 7 151796314.337 7      3983.811 7        46.262               
G03  26217000.700 7 137773698.530 7     -1271.389 7        45.507               
G09  26325490.776 7 138352417.815 7      2382.447 7        44.567               
G19  30799914.113 6 161857106.731 6     -2061.588 6        36.655               
G22  28033106.555 7 147325984.538 7     -2143.458 7        43.346               
G06  27360164.199 7 143789718.484 7      1400.076 7        47.118               
> 2020 12 01 09 30 56.5000000  0  6                                             
G07  28883690.472 7 151795915.378 7      3985.370 7        45.337               
G03  26217016.854 7 137773825.985 7     -1275.960 7        45.462               
G09  26325440.465 7 138352179.142 7      2389.783 7        44.510               
G19  30799946.375 6 161857312.562 6     -2064.209 6        36.797               
G22  28033141.632 7 147326198.724 7     -2140.931 7        43.019               
G06  27360133.240 7 143789578.371 7      1402.428 7        47.349               
> 2020 12 01 09 30 56.6000000  0  6                                             
G07  28883602.726 7 151795516.413 7      3993.179 7        44.374               
G03  26217036.054 7 137773953.427 7     -1275.589 7        45.439               
G09  26325387.421 7 138351940.517 7      2383.673 7        43.900               
G19  30799980.907 6 161857518.364 6     -2056.129 6        36.254               
G22  28033173.797 7 147326412.868 7     -2141.616 7        42.677               
G06  27360104.436 7 143789438.176 7      1402.800 7        47.590               
> 2020 12 01 09 30 56.7000000  0  6                                             
G07  28883522.565 7 151795117.326 7      3991.885 7        44.448               
G03  26217054.048 7 137774080.829 7     -1273.985 7        45.548               
G09  26325333.760 7 138351701.955 7      2385.302 7        43.367               
G19  30800014.188 6 161857724.181 6     -2067.950 6        36.391               
G22  28033208.838 7 147326627.025 7     -2137.425 7        42.683               
G06  27360074.157 7 143789298.071 7      1399.948 7        47.640               
> 2020 12 01 09 30 56.8000000  0  6                                             
G07  28883444.379 7 151794718.390 7      3988.324 7        44.832               
G03  26217071.989 7 137774208.354 7     -1275.211 7        45.743               
G09  26325281.386 7 138351463.338 7      2383.435 7        43.297               
G19  30800050.989 6 161857930.115 6     -2057.545 6        36.402               
G22  28033245.675 7 147326841.243 7     -2139.765 7        42.775               
G06  27360041.260 7 143789157.988 7      1400.902 7        47.669               
> 2020 12 01 09 30 56.9000000  0  6                                             
G07  28883366.819 7 151794319.477 7      3988.643 7        45.234               
G03  26217093.056 7 137774335.870 7     -1275.997 7        45.641               
G09  26325228.708 7 138351224.780 7      2387.314 7        43.468               
G19  30800081.912 6 161858136.019 6     -2054.219 6        36.192               
G22  28033281.020 7 147327055.473 7     -2142.521 7        42.868               
G06  27360006.924 7 143789017.936 7      1400.238 7        47.574               
> 2020 12 01 09 30 57.0000000  0  6                                             
G07  28883287.043 7 151793920.555 7      3984.669 7        45.133               
G03  26217112.980 7 137774463.421 7     -1277.895 7        45.538               
G09  26325177.585 7 138350986.281 7      2386.926 7        43.550               
G19  30800117.078 6 161858341.909 6     -2055.426 6        36.280               
G22  28033318.268 7 147327269.727 7     -2138.588 7        43.156               
G06  27359974.510 7 143788877.905 7      1399.834 7        47.292               
> 2020 12 01 09 30 57.1000000  0  6                                             
G07  28883205.962 7 151793521.568 7      3988.472 7        44.878               
G03  26217133.637 7 137774590.919 7     -1272.130 7        45.590               
G09  26325128.285 7 138350747.714 7      2387.051 7        43.770               
G19  30800149.859 6 161858547.776 6     -2046.787 6        36.173               
G22  28033354.408 7 147327483.937 7     -2142.089 7        43.236               
G06  27359943.784 7 143788737.838 7      1402.484 7        47.338               
> 2020 12 01 09 30 57.2000000  0  6                                             
G07  28883125.587 7 151793122.573 7      3990.353 7        44.589               
G03  26217153.150 7 137774718.412 7     -1275.402 7        45.784               
G09  26325079.654 7 138350509.137 7      2385.684 7        43.979               
G19  30800180.129 6 161858753.661 6     -2058.539 6        36.227               
G22  28033389.476 7 147327698.183 7     -2140.989 7        43.145               
G06  27359911.307 7 143788597.774 7      1398.832 7        47.436               
> 2020 12 01 09 30 57.3000000  0  6                                             
G07  28883044.694 7 151792723.671 7      3989.534 7        44.585               
G03  26217170.652 7 137774846.009 7     -1275.043 7        45.841               
G09  26325025.904 7 138350270.658 7      2383.230 7        43.878               
G19  30800215.009 6 161858959.633 6     -2068.612 6        36.512               
G22  28033425.589 7 147327912.477 7     -2141.905 7        43.192               
G06  27359878.509 7 143788457.776 7      1399.707 7        47.271               
> 2020 12 01 09 30 57.4000000  0  6                                             
G07  28882963.184 7 151792324.779 7      3988.075 7        44.819               
G03  26217184.617 7 137774973.617 7     -1276.332 7        45.756               
G09  26324974.477 7 138350032.207 7      2385.532 7        43.929               
G19  30800249.639 6 161859165.576 6     -2065.373 6        36.492               
G22  28033460.014 7 147328126.737 7     -2143.157 7        43.362               
G06  27359845.799 7 143788317.811 7      1400.073 7        47.303               
> 2020 12 01 09 30 57.5000000  0  6                                             
G07  28882880.085 7 151791925.852 7      3990.806 7        44.822               
G03  26217201.164 7 137775101.150 7     -1277.428 7        45.574               
G09  26324924.033 7 138349793.693 7      2385.966 7        44.178               
G19  30800286.056 6 161859371.520 6     -2061.425 6        36.504               
G22  28033495.618 7 147328341.018 7     -2141.976 7        43.319               
G06  27359814.913 7 143788177.797 7      1401.648 7        47.704               
> 2020 12 01 09 30 57.6000000  0  6                                             
G07  28882799.191 7 151791526.882 7      3990.653 7        44.686               
G03  26217221.963 7 137775228.706 7     -1276.955 7        45.693               
G09  26324871.337 7 138349555.131 7      2383.778 7        44.018               
G19  30800319.266 6 161859577.422 6     -2063.816 6        36.804               
G22  28033529.068 7 147328555.321 7     -2147.091 7        43.179               
G06  27359783.722 7 143788037.781 7      1398.738 7        47.620               
> 2020 12 01 09 30 57.7000000  0  6                                             
G07  28882714.921 7 151791127.920 7      3986.209 7        44.436               
G03  26217240.771 7 137775356.241 7     -1274.627 7        45.632               
G09  26324823.448 7 138349316.733 7      2382.740 7        43.985               
G19  30800356.255 6 161859783.285 6     -2053.466 6        36.915               
G22  28033562.716 7 147328769.568 7     -2140.977 7        42.963               
G06  27359752.085 7 143787897.737 7      1400.949 7        47.656               
> 2020 12 01 09 30 57.8000000  0  6                                             
G07  28882635.288 7 151790729.024 7      3989.549 7        44.533               
G03  26217260.069 7 137775483.825 7     -1279.673 7        45.553               
G09  26324776.819 7 138349078.150 7      2386.698 7        44.227               
G19  30800392.395 6 161859989.229 6     -2057.011 6        37.270               
G22  28033597.275 7 147328983.801 7     -2145.256 7        42.938               
G06  27359720.761 7 143787757.790 7      1397.215 7        47.850               
> 2020 12 01 09 30 57.9000000  0  6                                             
G07  28882556.521 7 151790330.174 7      3989.385 7        45.051               
G03  26217276.562 7 137775611.442 7     -1275.365 7        45.314               
G09  26324728.367 7 138348839.699 7      2382.496 7        44.478               
G19  30800429.786 6 161860195.211 6     -2060.354 6        37.160               
G22  28033633.057 7 147329198.114 7     -2142.098 7        42.971               
G06  27359689.231 7 143787617.847 7      1399.750 7        47.990               
> 2020 12 01 09 30 58.0000000  0  6                                             
G07  28882475.941 7 151789931.347 7      3987.644 7        45.356               
G03  26217295.646 7 137775739.086 7     -1275.452 7        45.268               
G09  26324674.376 7 138348601.267 7      2387.380 7        43.824               
G19  30800464.979 6 161860401.161 6     -2063.150 6        37.280               
G22  28033671.243 7 147329412.469 7     -2142.971 7        43.306               
G06  27359656.906 7 143787477.910 7      1399.130 7        47.856               
> 2020 12 01 09 30 58.1000000  0  6                                             
G07  28882393.940 7 151789532.557 7      3990.105 7        45.464               
G03  26217314.721 7 137775866.763 7     -1274.155 7        45.248               
G09  26324623.869 7 138348362.823 7      2387.198 7        43.601               
G19  30800494.293 6 161860607.196 6     -2059.351 6        37.391               
G22  28033707.803 7 147329626.898 7     -2141.963 7        43.652               
G06  27359625.984 8 143787338.057 8      1397.941 8        48.102               
> 2020 12 01 09 30 58.2000000  0  6                                             
G07  28882311.081 7 151789133.636 7      3988.886 7        44.829               
G03  26217333.448 7 137775994.426 7     -1275.001 7        45.360               
G09  26324574.461 7 138348124.414 7      2385.944 7        44.046               
G19  30800525.323 6 161860813.188 6     -2056.101 6        37.529               
G22  28033741.549 7 147329841.251 7     -2141.116 7        43.618               
G06  27359594.695 8 143787198.167 8      1399.792 8        48.229               
> 2020 12 01 09 30 58.3000000  0  6                                             
G07  28882228.964 7 151788734.737 7      3984.558 7        44.207               
G03  26217354.632 7 137776122.101 7     -1278.884 7        45.406               
G09  26324523.275 7 138347886.038 7      2384.445 7        44.167               
G19  30800557.326 6 161861019.208 6     -2060.024 6        37.985               
G22  28033775.759 7 147330055.626 7     -2145.044 7        43.365               
G06  27359562.790 8 143787058.295 8      1396.868 8        48.319               
> 2020 12 01 09 30 58.4000000  0  6                                             
G07  28882149.188 7 151788335.991 7      3989.431 7        44.632               
G03  26217373.796 7 137776249.827 7     -1275.629 7        45.227               
G09  26324470.311 7 138347647.589 7      2384.995 7        43.726               
G19  30800590.687 6 161861225.251 6     -2066.571 6        37.955               
G22  28033810.363 7 147330270.023 7     -2147.670 7        43.178               
G06  27359530.822 8 143786918.466 8      1397.887 8        48.370               
> 2020 12 01 09 30 58.5000000  0  6                                             
G07  28882070.296 7 151787937.232 7      3988.583 7        45.310               
G03  26217394.033 7 137776377.538 7     -1280.354 7        45.114               
G09  26324417.321 7 138347409.163 7      2378.477 7        43.206               
G19  30800624.138 6 161861431.318 6     -2059.693 6        37.641               
G22  28033846.887 7 147330484.447 7     -2147.716 7        43.459               
G06  27359499.873 8 143786778.665 8      1396.988 8        48.331               
> 2020 12 01 09 30 58.6000000  0  6                                             
G07  28881989.752 7 151787538.431 7      3987.587 7        45.932               
G03  26217414.404 7 137776505.245 7     -1279.168 7        45.057               
G09  26324370.057 7 138347170.857 7      2384.366 7        43.456               
G19  30800655.874 6 161861637.347 6     -2052.933 6        37.480               
G22  28033882.804 7 147330698.863 7     -2148.447 7        43.113               
G06  27359468.468 8 143786638.814 8      1398.157 8        48.487               
> 2020 12 01 09 30 58.7000000  0  6                                             
G07  28881907.661 7 151787139.580 7      3988.944 7        45.505               
G03  26217432.362 7 137776632.904 7     -1277.332 7        45.103               
G09  26324321.811 7 138346932.498 7      2383.276 7        43.975               
G19  30800688.931 6 161861843.346 6     -2067.018 6        37.078               
G22  28033917.425 7 147330913.218 7     -2143.449 7        42.718               
G06  27359433.668 8 143786498.923 8      1399.246 8        48.425               
> 2020 12 01 09 30 58.8000000  0  6                                             
G07  28881823.007 7 151786740.692 7      3993.985 7        44.830               
G03  26217450.857 7 137776760.571 7     -1275.489 7        45.236               
G09  26324272.841 7 138346694.105 7      2386.968 7        44.485               
G19  30800718.326 6 161862049.319 6     -2061.879 6        37.253               
G22  28033951.546 7 147331127.575 7     -2139.256 7        42.350               
G06  27359400.253 8 143786359.079 8      1399.064 8        48.626               
> 2020 12 01 09 30 58.9000000  0  6                                             
G07  28881736.637 7 151786341.855 7      3982.738 7        43.691               
G03  26217469.628 7 137776888.226 7     -1277.253 7        45.255               
G09  26324221.878 7 138346455.515 7      2384.494 7        43.677               
G19  30800750.088 6 161862255.283 6     -2054.200 6        36.922               
G22  28033987.177 7 147331341.914 7     -2143.027 7        42.519               
G06  27359366.784 8 143786219.188 8      1397.349 8        48.213               
> 2020 12 01 09 30 59.0000000  0  6                                             
G07  28881652.349 7 151785943.041 7      3995.275 7        42.978               
G03  26217485.603 7 137777015.889 7     -1276.683 7        45.384               
G09  26324169.317 7 138346217.105 7      2384.337 7        43.526               
G19  30800784.834 6 161862461.276 6     -2066.426 6        36.915               
G22  28034024.344 7 147331556.243 7     -2141.382 7        42.500               
G06  27359334.031 7 143786079.320 7      1399.913 7        47.919               
> 2020 12 01 09 30 59.1000000  0  6                                             
G07  28881569.678 7 151785544.232 7      3987.610 7        42.471               
G03  26217504.124 7 137777143.614 7     -1276.750 7        45.462               
G09  26324119.793 7 138345978.784 7      2385.854 7        43.610               
G19  30800821.377 6 161862667.332 6     -2057.403 6        36.685               
G22  28034061.154 7 147331770.628 7     -2141.664 7        42.790               
G06  27359300.937 7 143785939.480 7      1399.677 7        47.865               
> 2020 12 01 09 30 59.3000000  0  6                                             
G07  28881410.867 7 151784746.610 7      3990.097 7        43.273               
G03  26217543.097 7 137777399.010 7     -1275.795 7        45.322               
G09  26324019.136 7 138345501.996 7      2390.388 7        43.965               
G19  30800888.189 6 161863079.367 6     -2063.456 6        36.696               
G22  28034130.915 7 147332199.411 7     -2141.933 7        43.188               
G06  27359237.851 7 143785659.862 7      1398.513 7        47.842               
> 2020 12 01 09 30 59.4000000  0  6                                             
G07  28881331.010 7 151784347.685 7      3990.280 7        43.697               
G03  26217563.378 7 137777526.642 7     -1277.986 7        45.294               
G09  26323967.558 7 138345263.505 7      2385.403 7        44.178               
G19  30800920.737 6 161863285.300 6     -2057.032 6        36.447               
G22  28034166.412 7 147332413.727 7     -2144.330 7        43.283               
G06  27359206.526 7 143785519.996 7      1399.262 7        47.952               
> 2020 12 01 09 30 59.5000000  0  6                                             
G07  28881251.949 7 151783948.777 7      3988.446 7        44.282               
G03  26217584.642 7 137777654.329 7     -1273.962 7        45.431               
G09  26323918.382 7 138345025.127 7      2382.966 7        44.631               
G19  30800957.074 6 161863491.268 6     -2065.884 6        36.384               
G22  28034202.159 7 147332628.055 7     -2143.869 7        43.149               
G06  27359176.747 8 143785380.151 8      1398.960 8        48.347               
> 2020 12 01 09 30 59.6000000  0  6                                             
G07  28881175.675 7 151783549.973 7      3987.204 7        45.130               
G03  26217601.993 7 137777782.043 7     -1277.001 7        45.482               
G09  26323866.606 7 138344786.739 7      2388.902 7        43.929               
G19  30800994.501 6 161863697.279 6     -2054.821 6        36.147               
G22  28034239.818 7 147332842.465 7     -2140.820 7        43.268               
G06  27359145.745 8 143785240.336 8      1399.763 8        48.224               
> 2020 12 01 09 30 59.7000000  0  6                                             
G07  28881096.041 7 151783151.156 7      3986.339 7        45.966               
G03  26217617.262 7 137777909.714 7     -1275.493 7        45.746               
G09  26323809.899 7 138344548.271 7      2381.668 7        43.577               
G19  30801025.995 6 161863903.271 6     -2059.028 6        36.501               
G22  28034273.304 7 147333056.810 7     -2143.895 7        43.109               
G06  27359112.151 8 143785100.487 8      1399.748 8        48.107               
> 2020 12 01 09 30 59.8000000  0  6                                             
G07  28881016.104 7 151782752.311 7      3988.226 7        46.332               
G03  26217635.176 7 137778037.351 7     -1274.481 7        45.907               
G09  26323760.840 7 138344309.859 7      2384.665 7        43.799               
G19  30801059.338 6 161864109.191 6     -2060.375 6        36.544               
G22  28034306.478 7 147333271.146 7     -2147.038 7        42.881               
G06  27359079.486 8 143784960.638 8      1395.843 8        48.013               
> 2020 12 01 09 30 59.9000000  0  6                                             
G07  28880934.371 7 151782353.463 7      3988.653 7        46.424               
G03  26217654.858 7 137778165.088 7     -1281.718 7        46.000               
G09  26323711.995 7 138344071.504 7      2381.810 7        43.918               
G19  30801093.817 6 161864315.221 6     -2063.372 6        36.310               
G22  28034342.797 7 147333485.525 7     -2138.723 7        42.727               
G06  27359047.090 7 143784820.819 7      1397.423 7        47.620               
> 2020 12 01 09 31 00.0000000  0  6                                             
G07  28880851.825 7 151781954.638 7      3987.402 7        46.123               
G03  26217674.398 7 137778292.856 7     -1278.729 7        45.943               
G09  26323657.557 7 138343833.091 7      2384.761 7        43.788               
G19  30801129.483 6 161864521.273 6     -2049.075 6        36.379               
G22  28034378.642 7 147333699.966 7     -2146.223 7        42.919               
G06  27359013.907 7 143784681.076 7      1399.159 7        47.249               
> 2020 12 01 09 31 00.1000000  0  6                                             
G07  28880767.921 7 151781555.814 7      3990.228 7        45.580               
G03  26217694.358 7 137778420.627 7     -1279.263 7        45.866               
G09  26323605.201 7 138343594.764 7      2380.536 7        43.855               
G19  30801167.651 6 161864727.322 6     -2062.090 6        36.449               
G22  28034413.469 7 147333914.418 7     -2145.305 7        42.965               
G06  27358981.475 7 143784541.324 7      1397.898 7        47.248               
> 2020 12 01 09 31 00.2000000  0  6                                             
G07  28880684.214 7 151781156.972 7      3989.012 7        45.656               
G03  26217713.058 7 137778548.296 7     -1278.228 7        45.685               
G09  26323553.988 7 138343356.373 7      2387.085 7        43.814               
G19  30801198.878 6 161864933.307 6     -2053.980 6        36.605               
G22  28034449.681 7 147334128.787 7     -2143.138 7        43.373               
G06  27358950.660 7 143784401.525 7      1398.159 7        47.501               
> 2020 12 01 09 31 00.3000000  0  6                                             
G07  28880603.553 7 151780758.156 7      3987.710 7        45.895               
G03  26217732.785 7 137778676.022 7     -1276.246 7        45.741               
G09  26323503.740 7 138343117.985 7      2382.680 7        43.606               
G19  30801236.867 6 161865139.262 6     -2056.990 6        36.412               
G22  28034485.999 7 147334343.156 7     -2142.134 7        43.709               
G06  27358918.897 7 143784261.755 7      1397.112 7        47.449               
> 2020 12 01 09 31 00.4000000  0  6                                             
G07  28880522.276 7 151780359.414 7      3989.915 7        46.104               
G03  26217749.662 7 137778803.774 7     -1279.079 7        45.802               
G09  26323455.181 7 138342879.557 7      2380.422 7        43.844               
G19  30801271.872 6 161865345.330 6     -2062.697 6        36.363               
G22  28034522.229 7 147334557.572 7     -2144.350 7        43.958               
G06  27358883.570 7 143784122.015 7      1394.614 7        47.296               
> 2020 12 01 09 31 00.5000000  0  6                                             
G07  28880439.498 7 151779960.630 7      3988.753 7        46.129               
G03  26217767.934 7 137778931.560 7     -1278.075 7        45.694               
G09  26323402.512 7 138342641.247 7      2386.573 7        44.001               
G19  30801306.092 6 161865551.399 6     -2063.783 6        36.275               
G22  28034556.957 7 147334772.027 7     -2146.333 7        44.181               
G06  27358851.504 7 143783982.313 7      1395.993 7        47.359               
> 2020 12 01 09 31 00.6000000  0  6                                             
G07  28880357.291 7 151779561.810 7      3986.771 7        45.784               
G03  26217787.357 7 137779059.315 7     -1279.335 7        45.722               
G09  26323352.265 7 138342402.890 7      2379.412 7        44.329               
G19  30801339.346 6 161865757.462 6     -2062.479 6        36.255               
G22  28034593.294 7 147334986.442 7     -2145.029 7        43.854               
G06  27358819.939 7 143783842.560 7      1396.252 7        47.467               
> 2020 12 01 09 31 00.7000000  0  6                                             
G07  28880277.899 7 151779163.026 7      3988.733 7        45.829               
G03  26217805.173 7 137779187.108 7     -1276.271 7        45.817               
G09  26323299.685 7 138342164.540 7      2384.722 7        44.267               
G19  30801371.385 5 161865963.494 5     -2052.284 5        35.993               
G22  28034629.300 7 147335200.927 7     -2149.299 7        43.792               
G06  27358788.739 7 143783702.879 7      1397.296 7        47.515               
> 2020 12 01 09 31 00.8000000  0  6                                             
G07  28880197.792 7 151778764.310 7      3986.418 7        46.363               
G03  26217823.587 7 137779314.922 7     -1277.233 7        45.767               
G09  26323247.490 7 138341926.320 7      2379.817 7        44.056               
G19  30801403.469 5 161866169.630 5     -2065.270 5        35.563               
G22  28034663.162 7 147335415.420 7     -2146.032 7        43.338               
G06  27358756.513 7 143783563.211 7      1396.184 7        47.276               
> 2020 12 01 09 31 00.9000000  0  6                                             
G07  28880119.571 7 151778365.597 7      3986.947 7        47.236               
G03  26217845.128 7 137779442.810 7     -1279.401 7        45.658               
G09  26323193.909 7 138341688.061 7      2382.944 7        43.927               
G19  30801434.838 5 161866375.691 5     -2069.705 5        35.535               
G22  28034698.507 7 147335629.893 7     -2145.982 7        43.441               
G06  27358725.528 7 143783423.573 7      1396.356 7        47.460               
> 2020 12 01 09 31 01.0000000  0  6                                             
G07  28880040.152 7 151777966.907 7      3987.431 7        47.870               
G03  26217863.569 7 137779570.664 7     -1276.681 7        45.236               
G09  26323147.566 7 138341449.840 7      2381.263 7        44.219               
G19  30801464.063 5 161866581.840 5     -2058.489 5        35.685               
G22  28034735.701 7 147335844.406 7     -2145.050 7        43.759               
G06  27358691.880 7 143783283.951 7      1398.764 7        46.949               
> 2020 12 01 09 31 01.1000000  0  6                                             
G07  28879960.384 8 151777568.149 8      3988.384 8        48.413               
G03  26217883.600 7 137779698.518 7     -1278.208 7        45.372               
G09  26323095.674 7 138341211.552 7      2384.892 7        44.148               
G19  30801496.790 5 161866787.927 5     -2054.313 5        35.782               
G22  28034770.304 7 147336058.920 7     -2139.116 7        43.663               
G06  27358656.026 7 143783144.250 7      1394.773 7        46.663               
> 2020 12 01 09 31 01.2000000  0  6                                             
G07  28879879.179 8 151777169.443 8      3986.493 8        48.635               
G03  26217900.959 7 137779826.410 7     -1278.362 7        45.205               
G09  26323041.335 7 138340973.371 7      2379.593 7        43.790               
G19  30801527.793 6 161866994.088 6     -2057.820 6        36.076               
G22  28034804.854 7 147336273.480 7     -2142.468 7        43.267               
G06  27358624.898 7 143783004.708 7      1392.832 7        46.951               
> 2020 12 01 09 31 01.3000000  0  6                                             
G07  28879797.785 8 151776770.717 8      3985.307 8        48.800               
G03  26217918.864 7 137779954.302 7     -1278.083 7        45.405               
G09  26322991.167 7 138340735.096 7      2383.596 7        43.927               
G19  30801559.850 5 161867200.214 5     -2059.970 5        35.880               
G22  28034838.091 7 147336488.025 7     -2148.421 7        42.947               
G06  27358595.191 7 143782865.133 7      1398.574 7        47.287               
> 2020 12 01 09 31 01.4000000  0  6                                             
G07  28879713.649 8 151776372.017 8      3989.068 8        48.551               
G03  26217936.599 7 137780082.160 7     -1280.391 7        45.666               
G09  26322941.179 7 138340496.846 7      2380.372 7        44.357               
G19  30801594.426 5 161867406.363 5     -2075.855 5        35.580               
G22  28034870.264 7 147336702.535 7     -2145.403 7        43.202               
G06  27358561.463 7 143782725.524 7      1392.561 7        47.233               
> 2020 12 01 09 31 01.5000000  0  6                                             
G07  28879628.619 7 151775973.377 7      3987.885 7        47.987               
G03  26217956.639 7 137780210.067 7     -1280.674 7        45.472               
G09  26322892.155 7 138340258.601 7      2385.981 7        44.330               
G19  30801626.528 5 161867612.503 5     -2066.090 5        35.307               
G22  28034907.583 7 147336917.085 7     -2144.309 7        43.388               
G06  27358530.166 7 143782585.910 7      1396.667 7        47.395               
> 2020 12 01 09 31 01.6000000  0  6                                             
G07  28879545.350 7 151775574.658 7      3989.065 7        47.467               
G03  26217979.404 7 137780337.931 7     -1280.355 7        45.514               
G09  26322845.562 7 138340020.355 7      2382.663 7        44.669               
G19  30801656.584 5 161867818.629 5     -2063.520 5        35.343               
G22  28034942.732 7 147337131.611 7     -2143.543 7        43.587               
G06  27358499.592 7 143782446.353 7      1396.789 7        47.402               
> 2020 12 01 09 31 01.7000000  0  6                                             
G07  28879462.589 7 151775175.941 7      3985.083 7        47.068               
G03  26218000.517 7 137780465.798 7     -1278.826 7        45.634               
G09  26322793.170 7 138339782.078 7      2383.696 7        44.496               
G19  30801693.153 5 161868024.771 5     -2070.888 5        34.810               
G22  28034977.880 7 147337346.129 7     -2144.656 7        43.818               
G06  27358468.241 7 143782306.777 7      1396.120 7        47.766               
> 2020 12 01 09 31 01.8000000  0  6                                             
G07  28879380.061 7 151774777.219 7      3986.757 7        46.645               
G03  26218019.208 7 137780593.669 7     -1276.334 7        45.744               
G09  26322740.751 7 138339543.827 7      2383.621 7        44.340               
G19  30801731.410 5 161868230.866 5     -2059.144 5        34.881               
G22  28035013.832 7 147337560.624 7     -2144.824 7        43.848               
G06  27358436.898 7 143782167.146 7      1394.758 7        47.677               
> 2020 12 01 09 31 01.9000000  0  6                                             
G07  28879298.498 7 151774378.436 7      3989.126 7        46.584               
G03  26218039.811 7 137780721.483 7     -1277.271 7        45.849               
G09  26322690.798 7 138339305.515 7      2385.304 7        44.566               
G19  30801766.424 5 161868436.847 5     -2070.430 5        35.028               
G22  28035048.981 7 147337775.086 7     -2143.067 7        43.659               
G06  27358403.296 7 143782027.472 7      1395.756 7        47.618               
> 2020 12 01 09 31 02.0000000  0  6                                             
G07  28879218.793 7 151773979.658 7      3989.755 7        46.501               
G03  26218055.589 7 137780849.273 7     -1275.968 7        45.695               
G09  26322641.739 7 138339067.181 7      2388.756 7        44.985               
G19  30801799.741 5 161868642.890 5     -2061.074 5        34.831               
G22  28035086.407 7 147337989.541 7     -2146.026 7        43.461               
G06  27358368.639 7 143781887.846 7      1397.684 7        47.102               
> 2020 12 01 09 31 02.1000000  0  6                                             
G07  28879138.150 7 151773580.885 7      3986.743 7        46.700               
G03  26218072.511 7 137780977.093 7     -1279.159 7        45.554               
G09  26322593.322 7 138338828.839 7      2381.944 7        45.191               
G19  30801835.104 5 161868848.975 5     -2058.049 5        34.953               
G22  28035121.422 7 147338203.983 7     -2143.991 7        43.775               
G06  27358335.510 7 143781748.185 7      1398.322 7        47.173               
> 2020 12 01 09 31 02.2000000  0  6                                             
G07  28879056.355 7 151773182.117 7      3988.545 7        46.525               
G03  26218089.701 7 137781104.935 7     -1281.014 7        45.699               
G09  26322540.707 7 138338590.595 7      2379.378 7        44.998               
G19  30801871.325 5 161869055.007 5     -2063.212 5        34.957               
G22  28035159.197 7 147338418.445 7     -2143.115 7        43.988               
G06  27358300.352 7 143781608.583 7      1393.247 7        46.822               
> 2020 12 01 09 31 02.3000000  0  6                                             
G07  28878974.720 7 151772783.356 7      3987.017 7        46.571               
G03  26218108.124 7 137781232.805 7     -1280.536 7        45.799               
G09  26322484.643 7 138338352.266 7      2380.507 7        44.414               
G19  30801904.302 5 161869261.100 5     -2060.287 5        34.880               
G22  28035194.452 7 147338632.949 7     -2145.745 7        43.807               
G06  27358266.946 7 143781468.985 7      1397.400 7        46.560               
> 2020 12 01 09 31 02.4000000  0  6                                             
G07  28878895.176 7 151772384.590 7      3986.918 7        46.665               
G03  26218126.493 7 137781360.651 7     -1277.639 7        45.833               
G09  26322434.413 7 138338113.969 7      2382.932 7        44.235               
G19  30801937.896 5 161869467.189 5     -2051.249 5        34.619               
G22  28035229.029 7 147338847.433 7     -2147.376 7        43.823               
G06  27358235.693 7 143781329.366 7      1394.302 7        46.792               
> 2020 12 01 09 31 02.5000000  0  6                                             
G07  28878815.078 7 151771985.824 7      3985.078 7        46.816               
G03  26218142.835 7 137781488.490 7     -1280.485 7        45.339               
G09  26322384.970 7 138337875.740 7      2378.492 7        44.254               
G19  30801973.276 5 161869673.247 5     -2048.240 5        34.512               
G22  28035264.633 7 147339061.928 7     -2143.813 7        43.769               
G06  27358204.976 7 143781189.755 7      1398.537 7        46.785               
> 2020 12 01 09 31 02.6000000  0  6                                             
G07  28878734.739 7 151771587.073 7      3986.329 7        46.377               
G03  26218161.392 7 137781616.342 7     -1280.496 7        45.072               
G09  26322332.515 7 138337637.404 7      2382.545 7        44.314               
G19  30802006.620 5 161869879.340 5     -2058.600 5        34.508               
G22  28035301.318 7 147339276.420 7     -2145.927 7        43.772               
G06  27358173.679 7 143781050.182 7      1395.326 7        46.714               
> 2020 12 01 09 31 02.7000000  0  6                                             
G07  28878654.811 7 151771188.376 7      3984.073 7        46.107               
G03  26218182.003 7 137781744.228 7     -1279.415 7        44.817               
G09  26322281.964 7 138337399.134 7      2382.128 7        44.372               
G19  30802039.499 5 161870085.415 5     -2062.468 5        34.089               
G22  28035335.564 7 147339490.932 7     -2143.666 7        43.873               
G06  27358142.944 7 143780910.638 7      1397.705 7        46.818               
> 2020 12 01 09 31 02.8000000  0  6                                             
G07  28878574.302 7 151770789.624 7      3984.014 7        46.290               
G03  26218201.516 7 137781872.135 7     -1279.595 7        44.939               
G09  26322232.779 7 138337160.936 7      2383.541 7        44.808               
G19  30802070.671 5 161870291.484 5     -2064.569 5        34.035               
G22  28035370.266 7 147339705.407 7     -2146.494 7        43.880               
G06  27358111.843 7 143780771.010 7      1396.560 7        46.869               
> 2020 12 01 09 31 02.9000000  0  6                                             
G07  28878493.829 7 151770390.886 7      3984.045 7        46.437               
G03  26218219.180 7 137782000.000 7     -1279.909 7        44.980               
G09  26322183.202 7 138336922.674 7      2379.361 7        45.013               
G19  30802100.245 5 161870497.587 5     -2054.675 5        33.973               
G22  28035403.020 7 147339919.923 7     -2144.596 7        43.671               
G06  27358081.224 7 143780631.461 7      1393.048 7        47.156               
> 2020 12 01 09 31 03.0000000  0  6                                             
G07  28878412.043 7 151769992.137 7      3986.438 7        46.730               
G03  26218235.879 7 137782127.866 7     -1279.581 7        44.709               
G09  26322134.303 7 138336684.378 7      2382.794 7        45.092               
G19  30802133.043 5 161870703.684 5     -2061.780 5        34.208               
G22  28035436.077 7 147340134.456 7     -2140.689 7        43.183               
G06  27358049.382 7 143780491.922 7      1394.814 7        47.366               
> 2020 12 01 09 31 03.1000000  0  6                                             
G07  28878330.524 7 151769593.406 7      3986.024 7        46.842               
G03  26218258.036 7 137782255.769 7     -1277.280 7        44.837               
G09  26322083.635 7 138336446.113 7      2378.348 7        45.059               
G19  30802167.111 5 161870909.760 5     -2070.120 5        34.227               
G22  28035470.904 7 147340348.967 7     -2147.374 7        43.176               
G06  27358018.808 7 143780352.390 7      1393.550 7        47.491               
> 2020 12 01 09 31 03.2000000  0  6                                             
G07  28878247.701 7 151769194.711 7      3987.136 7        47.029               
G03  26218280.614 7 137782383.672 7     -1280.733 7        45.110               
G09  26322030.171 7 138336207.898 7      2382.767 7        44.939               
G19  30802204.064 5 161871115.841 5     -2064.259 5        34.404               
G22  28035506.508 7 147340563.475 7     -2145.725 7        43.175               
G06  27357987.260 7 143780212.853 7      1397.747 7        47.566               
> 2020 12 01 09 31 03.3000000  0  6                                             
G07  28878166.888 7 151768795.989 7      3986.736 7        47.139               
G03  26218299.564 7 137782511.595 7     -1279.581 7        45.157               
G09  26321977.726 7 138335969.661 7      2383.584 7        44.560               
G19  30802229.697 5 161871321.955 5     -2069.906 5        34.439               
G22  28035542.184 7 147340778.026 7     -2147.995 7        43.171               
G06  27357954.649 7 143780073.306 7      1396.405 7        47.546               
> 2020 12 01 09 31 03.4000000  0  6                                             
G07  28878085.370 7 151768397.245 7      3987.131 7        47.413               
G03  26218318.246 7 137782639.504 7     -1277.731 7        45.192               
G09  26321924.771 7 138335731.402 7      2379.167 7        44.294               
G19  30802262.790 5 161871528.022 5     -2051.526 5        34.611               
G22  28035577.904 7 147340992.539 7     -2142.219 7        43.158               
G06  27357922.279 8 143779933.779 8      1396.178 8        48.000               
> 2020 12 01 09 31 03.5000000  0  6                                             
G07  28878005.093 7 151767998.561 7      3985.485 7        47.630               
G03  26218338.456 7 137782767.413 7     -1277.148 7        45.068               
G09  26321875.667 7 138335493.210 7      2378.929 7        44.511               
G19  30802298.475 5 161871734.144 5     -2052.936 5        34.389               
G22  28035616.358 7 147341207.074 7     -2146.584 7        43.359               
G06  27357890.160 8 143779794.281 8      1393.540 8        48.070               
> 2020 12 01 09 31 03.6000000  0  6                                             
G07  28877923.530 8 151767599.917 8      3987.396 8        48.071               
G03  26218356.343 7 137782895.411 7     -1277.788 7        45.338               
G09  26321824.660 7 138335255.041 7      2384.892 7        44.510               
G19  30802332.220 5 161871940.267 5     -2061.334 5        34.365               
G22  28035654.088 7 147341421.651 7     -2146.375 7        43.343               
G06  27357856.950 7 143779654.841 7      1394.706 7        47.994               
> 2020 12 01 09 31 03.7000000  0  6                                             
G07  28877843.182 8 151767201.280 8      3985.139 8        48.257               
G03  26218373.935 7 137783023.398 7     -1280.179 7        45.313               
G09  26321772.053 7 138335016.827 7      2382.567 7        44.137               
G19  30802366.761 5 161872146.456 5     -2064.964 5        34.571               
G22  28035686.288 7 147341636.248 7     -2145.616 7        43.375               
G06  27357826.296 7 143779515.399 7      1393.592 7        47.843               
> 2020 12 01 09 31 03.8000000  0  6                                             
G07  28877762.370 8 151766802.639 8      3985.758 8        48.413               
G03  26218392.072 7 137783151.350 7     -1282.718 7        45.142               
G09  26321719.670 7 138334778.752 7      2388.048 7        43.169               
G19  30802407.663 5 161872352.615 5     -2069.276 5        34.615               
G22  28035721.303 7 147341850.868 7     -2147.502 7        43.576               
G06  27357792.050 7 143779375.966 7      1395.793 7        47.730               
> 2020 12 01 09 31 03.9000000  0  6                                             
G07  28877680.565 8 151766403.995 8      3984.658 8        48.382               
G03  26218410.709 7 137783279.334 7     -1276.989 7        45.202               
G09  26321666.912 7 138334540.493 7      2380.105 7        42.221               
G19  30802445.099 5 161872558.773 5     -2071.053 5        34.416               
G22  28035758.256 7 147342065.450 7     -2144.185 7        43.856               
G06  27357758.555 7 143779236.498 7      1398.043 7        47.251               
> 2020 12 01 09 31 04.0000000  0  6                                             
G07  28877598.546 8 151766005.258 8      3987.269 8        48.146               
G03  26218429.686 7 137783407.257 7     -1279.357 7        44.925               
G09  26321616.816 7 138334302.238 7      2385.196 7        42.444               
G19  30802477.915 5 161872764.885 5     -2067.810 5        34.174               
G22  28035792.475 7 147342280.000 7     -2141.321 7        43.686               
G06  27357727.462 7 143779097.012 7      1393.235 7        47.151               
> 2020 12 01 09 31 04.1000000  0  6                                             
G07  28877516.581 8 151765606.502 8      3985.123 8        48.065               
G03  26218450.879 7 137783535.190 7     -1279.559 7        44.869               
G09  26321568.534 7 138334064.032 7      2383.305 7        43.041               
G19  30802516.646 5 161872970.953 5     -2070.951 5        34.279               
G22  28035826.033 7 147342494.556 7     -2145.731 7        43.451               
G06  27357697.228 7 143778957.529 7      1394.589 7        47.368               
> 2020 12 01 09 31 04.2000000  0  6                                             
G07  28877434.607 7 151765207.804 7      3984.223 7        47.476               
G03  26218469.829 7 137783663.155 7     -1279.365 7        44.809               
G09  26321519.564 7 138333825.750 7      2380.616 7        42.944               
G19  30802548.159 5 161873177.085 5     -2057.738 5        33.668               
G22  28035861.235 7 147342709.103 7     -2145.507 7        43.434               
G06  27357665.859 7 143778818.067 7      1396.032 7        47.469               
> 2020 12 01 09 31 04.3000000  0  6                                             
G07  28877351.373 7 151764809.124 7      3989.346 7        46.997               
G03  26218487.671 7 137783791.128 7     -1281.672 7        44.589               
G09  26321472.381 7 138333587.644 7      2383.901 7        43.636               
G19  30802581.359 5 161873383.167 5     -2046.681 5        33.439               
G22  28035897.313 7 147342923.663 7     -2144.743 7        43.211               
G06  27357631.774 7 143778678.599 7      1396.536 7        47.315               
> 2020 12 01 09 31 04.4000000  0  6                                             
G07  28877268.872 7 151764410.408 7      3991.414 7        46.910               
G03  26218504.727 7 137783919.058 7     -1279.043 7        44.467               
G09  26321421.820 7 138333349.338 7      2382.257 7        43.886               
G19  30802615.212 5 161873589.297 5     -2066.980 5        33.404               
G22  28035935.624 7 147343138.213 7     -2147.937 7        43.236               
G06  27357596.983 7 143778539.153 7      1394.880 7        47.006               
> 2020 12 01 09 31 04.5000000  0  6                                             
G07  28877186.245 7 151764011.783 7      3984.233 7        46.437               
G03  26218522.292 7 137784047.064 7     -1284.441 7        44.530               
G09  26321371.037 7 138333111.199 7      2383.677 7        44.278               
G19  30802648.288 5 161873795.389 5     -2070.515 5        33.527               
G22  28035970.022 7 147343352.802 7     -2145.949 7        43.199               
G06  27357562.719 7 143778399.731 7      1393.495 7        46.723               
> 2020 12 01 09 31 04.6000000  0  6                                             
G07  28877105.915 7 151763613.214 7      3985.082 7        45.778               
G03  26218541.251 7 137784175.125 7     -1280.559 7        44.506               
G09  26321319.386 7 138332873.053 7      2378.535 7        44.091               
G19  30802678.450 5 161874001.685 5     -2058.924 5        33.299               
G22  28036000.971 7 147343567.465 7     -2145.598 7        43.450               
G06  27357530.385 7 143778260.324 7      1393.935 7        46.514               
> 2020 12 01 09 31 04.7000000  0  6                                             
G07  28877025.514 7 151763214.538 7      3988.660 7        45.703               
G03  26218559.558 7 137784303.083 7     -1279.789 7        44.699               
G09  26321270.863 7 138332634.958 7      2382.343 7        44.568               
G19  30802709.292 5 161874207.842 5     -2070.609 5        33.319               
G22  28036036.807 7 147343782.055 7     -2146.325 7        43.485               
G06  27357497.774 7 143778120.973 7      1394.361 7        46.161               
> 2020 12 01 09 31 04.8000000  0  6                                             
G07  28876945.326 7 151762815.791 7      3988.527 7        45.666               
G03  26218580.822 7 137784430.987 7     -1279.099 7        44.707               
G09  26321221.687 7 138332396.659 7      2383.456 7        44.601               
G19  30802745.620 5 161874413.867 5     -2057.031 5        33.391               
G22  28036072.599 7 147343996.523 7     -2146.225 7        43.441               
G06  27357468.183 7 143777981.491 7      1394.385 7        46.176               
> 2020 12 01 09 31 04.9000000  0  6                                             
G07  28876863.165 7 151762417.006 7      3983.391 7        45.400               
G03  26218598.995 7 137784558.910 7     -1281.776 7        44.523               
G09  26321172.440 7 138332158.394 7      2383.718 7        44.951               
G19  30802777.990 5 161874619.943 5     -2050.204 5        32.998               
G22  28036109.284 7 147344210.999 7     -2141.291 7        43.354               
G06  27357435.840 7 143777842.006 7      1395.465 7        46.320               
> 2020 12 01 09 31 05.0000000  0  6                                             
G07  28876780.976 7 151762018.232 7      3988.520 7        45.085               
G03  26218618.508 7 137784686.795 7     -1280.005 7        44.839               
G09  26321120.075 7 138331920.147 7      2381.479 7        45.010               
G19  30802809.439 5 161874825.985 5     -2058.702 5        33.102               
G22  28036145.451 7 147344425.519 7     -2144.100 7        43.361               
G06  27357403.247 7 143777702.505 7      1395.415 7        46.280               
> 2020 12 01 09 31 05.1000000  0  6                                             
G07  28876698.448 7 151761619.456 7      3985.410 7        44.779               
G03  26218638.441 7 137784814.716 7     -1277.070 7        44.954               
G09  26321071.534 7 138331681.923 7      2383.909 7        45.154               
G19  30802839.745 5 161875032.023 5     -2076.720 5        33.403               
G22  28036181.242 7 147344640.044 7     -2145.751 7        43.567               
G06  27357372.780 7 143777562.992 7      1395.285 7        46.202               
> 2020 12 01 09 31 05.2000000  0  6                                             
G07  28876618.198 7 151761220.636 7      3988.672 7        44.907               
G03  26218654.684 7 137784942.590 7     -1279.019 7        44.910               
G09  26321020.491 7 138331443.564 7      2380.854 7        45.126               
G19  30802873.089 5 161875238.025 5     -2070.846 5        33.394               
G22  28036218.481 7 147344854.477 7     -2143.830 7        43.564               
G06  27357342.984 7 143777423.494 7      1395.388 7        46.192               
> 2020 12 01 09 31 05.3000000  0  6                                             
G07  28876537.421 7 151760821.854 7      3990.066 7        45.367               
G03  26218670.426 7 137785070.460 7     -1280.688 7        45.002               
G09  26320967.089 7 138331205.250 7      2382.545 7        45.183               
G19  30802907.335 5 161875444.046 5     -2057.184 5        33.380               
G22  28036253.103 7 147345068.967 7     -2143.214 7        43.653               
G06  27357313.419 7 143777283.977 7      1395.108 7        46.631               
> 2020 12 01 09 31 05.4000000  0  6                                             
G07  28876454.911 7 151760423.055 7      3992.149 7        45.301               
G03  26218687.205 7 137785198.355 7     -1280.415 7        45.105               
G09  26320915.225 7 138330966.963 7      2383.736 7        45.079               
G19  30802941.893 5 161875650.062 5     -2062.824 5        33.353               
G22  28036288.957 7 147345283.447 7     -2146.279 7        43.695               
G06  27357282.667 7 143777144.469 7      1395.316 7        46.613               
> 2020 12 01 09 31 05.5000000  0  6                                             
G07  28876373.339 7 151760024.214 7      3993.091 7        44.957               
G03  26218705.584 7 137785326.204 7     -1274.500 7        45.144               
G09  26320861.734 7 138330728.671 7      2384.030 7        44.826               
G19  30802978.507 5 161875856.047 5     -2056.516 5        33.150               
G22  28036325.749 7 147345497.902 7     -2146.041 7        43.667               
G06  27357249.859 7 143777004.917 7      1394.703 7        46.541               
> 2020 12 01 09 31 05.6000000  0  6                                             
G07  28876291.972 7 151759625.361 7      3986.672 7        44.990               
G03  26218725.722 7 137785454.049 7     -1277.141 7        45.149               
G09  26320813.228 7 138330490.420 7      2383.321 7        44.740               
G19  30803012.458 5 161876062.028 5     -2065.192 5        33.601               
G22  28036360.344 7 147345712.336 7     -2146.516 7        43.966               
G06  27357218.472 7 143776865.400 7      1395.916 7        46.622               
> 2020 12 01 09 31 05.7000000  0  6                                             
G07  28876211.195 7 151759226.486 7      3988.951 7        45.015               
G03  26218748.827 7 137785581.850 7     -1278.346 7        45.226               
G09  26320764.830 7 138330251.998 7      2381.735 7        44.718               
G19  30803047.848 5 161876267.962 5     -2060.015 5        33.769               
G22  28036392.490 7 147345926.731 7     -2141.449 7        43.766               
G06  27357188.390 7 143776725.855 7      1395.288 7        46.828               
> 2020 12 01 09 31 05.8000000  0  6                                             
G07  28876130.365 7 151758827.605 7      3989.213 7        45.163               
G03  26218769.689 7 137785709.637 7     -1279.923 7        45.205               
G09  26320713.501 7 138330013.542 7      2382.141 7        45.252               
G19  30803081.736 5 161876473.887 5     -2064.857 5        34.051               
G22  28036428.460 7 147346141.104 7     -2145.179 7        43.409               
G06  27357159.549 7 143776586.264 7      1395.786 7        47.114               
> 2020 12 01 09 31 05.9000000  0  6                                             
G07  28876047.881 7 151758428.757 7      3988.024 7        45.340               
G03  26218788.827 7 137785837.484 7     -1277.913 7        45.201               
G09  26320661.985 7 138329775.161 7      2384.558 7        45.340               
G19  30803114.410 5 161876679.820 5     -2051.077 5        34.294               
G22  28036464.824 7 147346355.513 7     -2141.998 7        43.536               
G06  27357127.510 7 143776446.743 7      1393.420 7        47.217               
> 2020 12 01 09 31 06.0000000  0  6                                             
G07  28875965.175 7 151758029.878 7      3989.981 7        45.275               
G03  26218806.919 7 137785965.282 7     -1275.984 7        45.240               
G09  26320609.709 7 138329536.744 7      2385.145 7        44.991               
G19  30803148.567 5 161876885.729 5     -2046.211 5        34.460               
G22  28036499.954 7 147346569.872 7     -2141.833 7        43.698               
G06  27357096.454 7 143776307.146 7      1396.005 7        47.053               
> 2020 12 01 09 31 06.1000000  0  6                                             
G07  28875883.111 7 151757630.954 7      3987.170 7        45.598               
G03  26218825.458 7 137786093.042 7     -1278.761 7        45.147               
G09  26320556.200 7 138329298.368 7      2386.103 7        44.735               
G19  30803186.896 5 161877091.628 5     -2059.955 5        34.380               
G22  28036536.193 7 147346784.216 7     -2143.194 7        43.665               
G06  27357065.621 7 143776167.550 7      1394.132 7        47.535               
> 2020 12 01 09 31 06.2000000  0  6                                             
G07  28875801.879 7 151757232.028 7      3991.094 7        45.702               
G03  26218841.174 7 137786220.816 7     -1277.055 7        44.874               
G09  26320504.469 7 138329059.965 7      2385.413 7        44.757               
G19  30803224.108 5 161877297.478 5     -2057.065 5        34.317               
G22  28036569.241 7 147346998.600 7     -2144.773 7        43.501               
G06  27357034.555 8 143776027.973 8      1395.917 8        48.214               
> 2020 12 01 09 31 06.3000000  0  6                                             
G07  28875721.468 7 151756833.054 7      3989.069 7        45.812               
G03  26218860.839 7 137786348.558 7     -1277.960 7        44.603               
G09  26320452.828 7 138328821.556 7      2384.822 7        44.615               
G19  30803258.542 5 161877503.319 5     -2066.965 5        34.399               
G22  28036603.827 7 147347212.889 7     -2143.176 7        43.491               
G06  27357002.784 8 143775888.287 8      1398.158 8        48.208               
> 2020 12 01 09 31 06.4000000  0  6                                             
G07  28875641.299 7 151756434.107 7      3990.083 7        46.240               
G03  26218880.620 7 137786476.274 7     -1279.064 7        44.443               
G09  26320400.114 7 138328583.112 7      2386.144 7        44.446               
G19  30803292.850 5 161877709.132 5     -2055.670 5        33.880               
G22  28036641.209 7 147347427.175 7     -2140.769 7        43.539               
G06  27356969.735 7 143775748.672 7      1393.996 7        47.993               
> 2020 12 01 09 31 06.5000000  0  5                                             
G07  28875560.817 7 151756035.151 7      3991.234 7        46.569               
G03  26218900.142 7 137786604.001 7     -1277.231 7        44.348               
G09  26320348.839 7 138328344.588 7      2382.896 7        44.124               
G22  28036675.026 7 147347641.469 7     -2140.720 7        43.703               
G06  27356937.223 7 143775609.035 7      1396.747 7        47.877               
> 2020 12 01 09 31 06.6000000  0  5                                             
G07  28875481.559 7 151755636.160 7      3991.919 7        46.965               
G03  26218919.333 7 137786731.738 7     -1272.989 7        44.272               
G09  26320295.500 7 138328106.124 7      2385.109 7        43.989               
G22  28036709.951 7 147347855.801 7     -2144.700 7        43.745               
G06  27356904.442 7 143775469.414 7      1395.187 7        47.797               
> 2020 12 01 09 31 06.7000000  0  5                                             
G07  28875400.817 7 151755237.256 7      3989.943 7        47.059               
G03  26218938.426 7 137786859.515 7     -1278.568 7        44.356               
G09  26320242.786 7 138327867.735 7      2383.770 7        43.880               
G22  28036744.036 7 147348070.183 7     -2145.240 7        43.542               
G06  27356870.714 7 143775329.843 7      1396.108 7        47.599               
> 2020 12 01 09 31 06.8000000  0  5                                             
G07  28875319.567 7 151754838.303 7      3991.008 7        47.223               
G03  26218952.355 7 137786987.310 7     -1277.351 7        44.369               
G09  26320194.460 7 138327629.320 7      2385.783 7        44.055               
G22  28036782.499 7 147348284.499 7     -2146.595 7        43.395               
G06  27356836.915 7 143775190.240 7      1397.889 7        47.186               
> 2020 12 01 09 31 06.9000000  0  5                                             
G07  28875238.701 7 151754439.348 7      3990.447 7        47.086               
G03  26218971.939 7 137787115.061 7     -1276.964 7        44.558               
G09  26320147.947 7 138327390.894 7      2383.606 7        44.342               
G22  28036817.844 7 147348498.811 7     -2143.631 7        43.559               
G06  27356804.367 7 143775050.671 7      1395.330 7        47.147               
> 2020 12 01 09 31 07.0000000  0  5                                             
G07  28875158.058 7 151754040.331 7      3988.829 7        47.035               
G03  26218990.505 7 137787242.783 7     -1279.229 7        44.457               
G09  26320098.566 7 138327152.427 7      2384.916 7        44.378               
G22  28036852.492 7 147348713.097 7     -2143.104 7        43.374               
G06  27356773.677 7 143774911.086 7      1398.709 7        47.257               
> 2020 12 01 09 31 07.1000000  0  5                                             
G07  28875077.701 7 151753641.287 7      3992.320 7        47.149               
G03  26219007.758 7 137787370.482 7     -1277.333 7        44.444               
G09  26320049.453 7 138326913.925 7      2385.373 7        44.445               
G22  28036886.694 7 147348927.351 7     -2140.125 7        43.280               
G06  27356740.887 7 143774771.392 7      1397.594 7        47.023               
> 2020 12 01 09 31 07.2000000  0  5                                             
G07  28874997.808 7 151753242.270 7      3988.373 7        47.090               
G03  26219028.843 7 137787498.151 7     -1275.935 7        44.450               
G09  26320000.241 7 138326675.390 7      2385.183 7        44.428               
G22  28036921.994 7 147349141.598 7     -2143.503 7        43.349               
G06  27356707.007 7 143774631.689 7      1394.844 7        46.863               
> 2020 12 01 09 31 07.3000000  0  5                                             
G07  28874916.058 7 151752843.210 7      3990.174 7        47.163               
G03  26219049.777 7 137787625.789 7     -1274.758 7        44.389               
G09  26319949.234 7 138326436.811 7      2386.294 7        44.718               
G22  28036957.357 7 147349355.816 7     -2142.847 7        43.248               
G06  27356671.671 7 143774491.973 7      1396.938 7        46.423               
> 2020 12 01 09 31 07.4000000  0  5                                             
G07  28874833.172 7 151752444.092 7      3991.206 7        47.144               
G03  26219070.978 7 137787753.424 7     -1274.488 7        44.541               
G09  26319896.119 7 138326198.277 7      2384.120 7        44.582               
G22  28036991.218 7 147349570.004 7     -2139.137 7        43.111               
G06  27356639.078 7 143774352.274 7      1395.056 7        46.429               
> 2020 12 01 09 31 07.5000000  0  5                                             
G07  28874750.689 7 151752044.940 7      3989.955 7        46.718               
G03  26219089.401 7 137787881.053 7     -1276.856 7        44.613               
G09  26319839.366 7 138325959.660 7      2394.620 7        43.793               
G22  28037025.706 7 147349784.162 7     -2143.044 7        43.287               
G06  27356606.655 7 143774212.567 7      1397.895 7        46.538               
> 2020 12 01 09 31 07.6000000  0  5                                             
G07  28874666.660 7 151751645.879 7      3993.627 7        46.112               
G03  26219107.914 7 137788008.688 7     -1276.916 7        44.761               
G09  26319779.380 7 138325721.123 7      2377.928 7        42.905               
G22  28037059.666 7 147349998.345 7     -2141.270 7        43.316               
G06  27356573.535 7 143774072.882 7      1397.393 7        46.422               
> 2020 12 01 09 31 07.7000000  0  5                                             
G07  28874583.113 7 151751246.836 7      3992.722 7        45.742               
G03  26219124.800 7 137788136.340 7     -1276.115 7        44.736               
G09  26319732.805 7 138325482.554 7      2382.774 7        42.680               
G22  28037093.268 7 147350212.591 7     -2142.931 7        43.493               
G06  27356542.442 7 143773933.233 7      1397.004 7        46.773               
> 2020 12 01 09 31 07.8000000  0  5                                             
G07  28874501.130 7 151750847.714 7      3990.761 7        45.438               
G03  26219144.840 7 137788264.004 7     -1276.782 7        44.668               
G09  26319686.792 7 138325244.027 7      2386.424 7        43.306               
G22  28037130.499 7 147350426.792 7     -2141.400 7        43.438               
G06  27356511.395 7 143773793.534 7      1394.848 7        47.116               
> 2020 12 01 09 31 07.9000000  0  5                                             
G07  28874418.530 7 151750448.593 7      3988.549 7        45.494               
G03  26219161.297 7 137788391.609 7     -1277.857 7        44.782               
G09  26319634.185 7 138325005.412 7      2387.304 7        43.282               
G22  28037168.515 7 147350640.954 7     -2140.381 7        43.621               
G06  27356479.937 7 143773653.787 7      1398.242 7        47.265               
> 2020 12 01 09 31 08.0000000  0  5                                             
G07  28874336.878 7 151750049.460 7      3990.256 7        45.567               
G03  26219180.560 7 137788519.233 7     -1276.121 7        45.112               
G09  26319584.947 7 138324766.795 7      2385.480 7        43.596               
G22  28037204.941 7 147350855.115 7     -2143.398 7        43.800               
G06  27356449.398 7 143773514.098 7      1396.661 7        47.647               
> 2020 12 01 09 31 08.1000000  0  5                                             
G07  28874256.548 7 151749650.341 7      3991.161 7        45.912               
G03  26219202.727 7 137788646.896 7     -1279.280 7        45.340               
G09  26319536.665 7 138324528.224 7      2384.007 7        44.031               
G22  28037241.751 7 147351069.326 7     -2141.045 7        43.835               
G06  27356417.779 7 143773374.451 7      1399.488 7        47.524               
> 2020 12 01 09 31 08.2000000  0  5                                             
G07  28874176.057 7 151749251.217 7      3994.294 7        45.970               
G03  26219222.418 7 137788774.557 7     -1275.341 7        45.199               
G09  26319485.613 7 138324289.682 7      2383.491 7        44.037               
G22  28037275.738 7 147351283.516 7     -2143.057 7        43.621               
G06  27356385.329 7 143773234.732 7      1395.786 7        47.720               
> 2020 12 01 09 31 08.3000000  0  5                                             
G07  28874091.777 7 151748852.145 7      3990.575 7        45.466               
G03  26219242.360 7 137788902.146 7     -1274.898 7        45.074               
G09  26319434.079 7 138324051.085 7      2386.651 7        43.898               
G22  28037310.868 7 147351497.662 7     -2139.697 7        43.706               
G06  27356354.291 7 143773095.026 7      1398.403 7        47.683               
> 2020 12 01 09 31 08.4000000  0  5                                             
G07  28874006.819 7 151748453.050 7      3990.906 7        44.733               
G03  26219258.433 7 137789029.794 7     -1275.268 7        45.160               
G09  26319384.957 7 138323812.522 7      2383.952 7        44.044               
G22  28037344.266 7 147351711.840 7     -2142.754 7        43.670               
G06  27356323.064 7 143772955.313 7      1397.799 7        47.584               
> 2020 12 01 09 31 08.5000000  0  5                                             
G07  28873927.561 7 151748053.900 7      3992.159 7        44.748               
G03  26219273.015 7 137789157.438 7     -1276.155 7        45.205               
G09  26319337.318 7 138323573.951 7      2382.968 7        44.621               
G22  28037381.558 7 147351926.030 7     -2144.538 7        43.511               
G06  27356292.258 7 143772815.684 7      1396.646 7        47.427               
> 2020 12 01 09 31 08.6000000  0  5                                             
G07  28873847.508 7 151747654.793 7      3990.019 7        44.842               
G03  26219290.875 7 137789285.086 7     -1275.089 7        45.358               
G09  26319287.348 7 138323335.365 7      2387.214 7        44.535               
G22  28037416.805 7 147352140.210 7     -2142.044 7        43.821               
G06  27356260.058 7 143772676.022 7      1396.513 7        47.639               
> 2020 12 01 09 31 08.7000000  0  5                                             
G07  28873767.222 7 151747255.686 7      3992.865 7        45.032               
G03  26219309.834 7 137789412.726 7     -1275.961 7        45.366               
G09  26319235.805 7 138323096.801 7      2388.066 7        44.153               
G22  28037453.713 7 147352354.394 7     -2138.773 7        43.919               
G06  27356224.392 7 143772536.337 7      1397.185 7        47.381               
> 2020 12 01 09 31 08.8000000  0  5                                             
G07  28873687.526 7 151746856.509 7      3992.568 7        45.244               
G03  26219329.883 7 137789540.309 7     -1277.690 7        45.466               
G09  26319184.771 7 138322858.198 7      2387.284 7        43.697               
G22  28037487.879 7 147352568.546 7     -2139.369 7        44.110               
G06  27356192.201 7 143772396.624 7      1397.859 7        47.272               
> 2020 12 01 09 31 08.9000000  0  5                                             
G07  28873607.312 7 151746457.367 7      3989.354 7        45.375               
G03  26219350.504 7 137789667.968 7     -1278.322 7        45.345               
G09  26319136.891 7 138322619.551 7      2384.646 7        43.986               
G22  28037520.561 7 147352782.694 7     -2141.892 7        44.114               
G06  27356160.349 7 143772256.975 7      1395.580 7        47.352               
> 2020 12 01 09 31 09.0000000  0  5                                             
G07  28873527.072 7 151746058.272 7      3989.565 7        45.645               
G03  26219371.884 7 137789795.618 7     -1277.456 7        45.421               
G09  26319085.437 7 138322381.021 7      2387.180 7        44.018               
G22  28037556.380 7 147352996.875 7     -2142.446 7        44.049               
G06  27356128.542 7 143772117.353 7      1397.434 7        47.549               
> 2020 12 01 09 31 09.1000000  0  5                                             
G07  28873446.009 7 151745659.152 7      3989.892 7        45.835               
G03  26219390.780 7 137789923.244 7     -1275.366 7        45.399               
G09  26319029.855 7 138322142.440 7      2386.579 7        44.116               
G22  28037591.126 7 147353211.061 7     -2140.175 7        44.073               
G06  27356095.359 7 143771977.689 7      1396.841 7        47.257               
> 2020 12 01 09 31 09.2000000  0  5                                             
G07  28873365.080 7 151745260.014 7      3992.531 7        46.149               
G03  26219405.433 7 137790050.907 7     -1274.846 7        45.200               
G09  26318979.688 7 138321903.867 7      2382.310 7        44.363               
G22  28037625.873 7 147353425.247 7     -2142.226 7        44.245               
G06  27356060.372 7 143771838.047 7      1397.142 7        47.014               
> 2020 12 01 09 31 09.3000000  0  5                                             
G07  28873283.365 7 151744860.834 7      3992.941 7        46.225               
G03  26219423.561 7 137790178.501 7     -1278.777 7        45.153               
G09  26318929.467 7 138321665.258 7      2388.075 7        45.029               
G22  28037661.334 7 147353639.331 7     -2139.022 7        44.571               
G06  27356027.189 7 143771698.306 7      1397.887 7        46.877               
> 2020 12 01 09 31 09.4000000  0  5                                             
G07  28873200.077 7 151744461.675 7      3988.114 7        46.148               
G03  26219444.638 7 137790306.087 7     -1274.979 7        45.111               
G09  26318880.693 7 138321426.643 7      2383.027 7        45.243               
G22  28037696.777 7 147353853.436 7     -2140.178 7        44.776               
G06  27355995.686 7 143771558.624 7      1396.747 7        46.869               
> 2020 12 01 09 31 09.5000000  0  5                                             
G07  28873117.799 7 151744062.488 7      3991.315 7        46.065               
G03  26219463.793 7 137790433.648 7     -1273.751 7        44.854               
G09  26318829.472 7 138321187.863 7      2386.367 7        44.842               
G22  28037733.909 7 147354067.572 7     -2141.477 7        44.155               
G06  27355964.683 7 143771418.906 7      1397.778 7        47.068               
> 2020 12 01 09 31 09.6000000  0  5                                             
G07  28873035.030 7 151743663.333 7      3990.207 7        45.850               
G03  26219481.644 7 137790561.282 7     -1279.925 7        44.661               
G09  26318776.571 7 138320949.267 7      2382.280 7        44.688               
G22  28037771.219 7 147354281.711 7     -2138.327 7        44.163               
G06  27355932.716 7 143771279.223 7      1395.941 7        47.087               
> 2020 12 01 09 31 09.7000000  0  5                                             
G07  28872952.967 7 151743264.216 7      3991.480 7        45.688               
G03  26219500.300 7 137790688.946 7     -1278.475 7        44.823               
G09  26318723.544 7 138320710.744 7      2387.980 7        44.323               
G22  28037804.062 7 147354495.877 7     -2142.185 7        44.208               
G06  27355901.856 7 143771139.586 7      1397.390 7        47.407               
> 2020 12 01 09 31 09.8000000  0  5                                             
G07  28872872.494 7 151742865.001 7      3991.438 7        45.638               
G03  26219521.671 7 137790816.507 7     -1273.660 7        44.927               
G09  26318671.742 7 138320472.068 7      2387.357 7        44.020               
G22  28037841.114 7 147354709.971 7     -2138.850 7        44.392               
G06  27355871.353 7 143770999.852 7      1396.103 7        47.649               
> 2020 12 01 09 31 09.9000000  0  5                                             
G07  28872789.001 7 151742465.802 7      3992.058 7        45.482               
G03  26219540.416 7 137790944.094 7     -1274.467 7        44.863               
G09  26318617.920 7 138320233.438 7      2381.826 7        43.880               
G22  28037876.977 7 147354924.066 7     -2137.925 7        44.649               
G06  27355839.538 7 143770860.154 7      1396.114 7        47.964               
> 2020 12 01 09 31 10.0000000  0  5                                             
G07  28872705.758 7 151742066.595 7      3991.309 7        45.171               
G03  26219559.223 7 137791071.682 7     -1275.009 7        44.735               
G09  26318566.887 7 138319994.797 7      2384.641 7        43.803               
G22  28037911.643 7 147355138.181 7     -2142.296 7        44.418               
G06  27355806.909 7 143770720.465 7      1395.684 7        47.804               
> 2020 12 01 09 31 10.1000000  0  5                                             
G07  28872625.776 7 151741667.415 7      3988.275 7        45.303               
G03  26219576.725 7 137791199.328 7     -1273.413 7        44.792               
G09  26318516.228 7 138319756.172 7      2381.206 7        43.625               
G22  28037944.620 7 147355352.325 7     -2134.810 7        44.096               
G06  27355774.476 7 143770580.846 7      1392.777 7        47.634               
> 2020 12 01 09 31 10.2000000  0  5                                             
G07  28872543.453 7 151741268.213 7      3995.550 7        45.096               
G03  26219594.907 7 137791326.934 7     -1273.527 7        44.701               
G09  26318465.256 7 138319517.588 7      2384.370 7        43.493               
G22  28037979.116 7 147355566.459 7     -2143.571 7        43.690               
G06  27355743.831 7 143770441.173 7      1396.521 7        47.629               
> 2020 12 01 09 31 10.3000000  0  5                                             
G07  28872463.418 7 151740869.032 7      3989.048 7        45.360               
G03  26219612.562 7 137791454.537 7     -1277.322 7        44.623               
G09  26318415.741 7 138319278.993 7      2390.368 7        43.957               
G22  28038016.329 7 147355780.598 7     -2141.267 7        43.450               
G06  27355712.971 7 143770301.471 7      1395.974 7        47.732               
> 2020 12 01 09 31 10.4000000  0  5                                             
G07  28872381.685 7 151740469.897 7      3992.438 7        45.412               
G03  26219631.011 7 137791582.181 7     -1280.005 7        44.735               
G09  26318367.004 7 138319040.340 7      2386.712 7        44.074               
G22  28038049.878 7 147355994.780 7     -2144.105 7        43.437               
G06  27355682.987 8 143770161.875 8      1394.043 8        48.109               
> 2020 12 01 09 31 10.5000000  0  5                                             
G07  28872302.275 7 151740070.735 7      3989.453 7        45.388               
G03  26219651.373 7 137791709.843 7     -1276.845 7        44.940               
G09  26318318.060 7 138318801.832 7      2385.822 7        44.399               
G22  28038080.818 7 147356208.965 7     -2139.781 7        43.246               
G06  27355652.726 8 143770022.290 8      1395.661 8        48.470               
> 2020 12 01 09 31 10.6000000  0  5                                             
G07  28872221.561 7 151739671.639 7      3990.126 7        45.813               
G03  26219671.467 7 137791837.525 7     -1278.214 7        45.238               
G09  26318262.443 7 138318563.170 7      2382.977 7        43.559               
G22  28038113.295 7 147356423.163 7     -2141.859 7        42.727               
G06  27355620.892 8 143769882.697 8      1396.481 8        48.382               
> 2020 12 01 09 31 10.7000000  0  5                                             
G07  28872140.221 7 151739272.527 7      3990.219 7        45.960               
G03  26219691.436 7 137791965.209 7     -1277.827 7        45.272               
G09  26318208.693 7 138318324.597 7      2387.905 7        42.911               
G22  28038149.944 7 147356637.319 7     -2140.330 7        42.661               
G06  27355587.129 8 143769743.105 8      1396.620 8        48.134               
> 2020 12 01 09 31 10.8000000  0  5                                             
G07  28872056.522 7 151738873.384 7      3997.761 7        45.865               
G03  26219709.850 7 137792092.882 7     -1278.018 7        45.492               
G09  26318158.973 7 138318086.015 7      2387.730 7        42.877               
G22  28038188.246 7 147356851.458 7     -2143.265 7        42.666               
G06  27355553.472 7 143769603.489 7      1396.527 7        47.975               
> 2020 12 01 09 31 10.9000000  0  5                                             
G07  28871973.146 7 151738474.110 7      3994.174 7        45.428               
G03  26219727.361 7 137792220.480 7     -1271.933 7        45.451               
G09  26318108.725 7 138317847.321 7      2383.488 7        43.081               
G22  28038225.271 7 147357065.588 7     -2141.531 7        42.583               
G06  27355520.629 8 143769463.834 8      1395.562 8        48.159               
> 2020 12 01 09 31 11.0000000  0  5                                             
G07  28871891.323 7 151738074.927 7      3994.026 7        45.231               
G03  26219744.453 7 137792348.125 7     -1277.369 7        45.067               
G09  26318060.291 7 138317608.765 7      2385.842 7        43.492               
G22  28038259.294 7 147357279.734 7     -2143.324 7        42.706               
G06  27355486.973 8 143769324.187 8      1396.964 8        48.099               
> 2020 12 01 09 31 11.1000000  0  5                                             
G07  28871810.555 7 151737675.759 7      3988.880 7        45.237               
G03  26219763.296 7 137792475.725 7     -1275.319 7        44.988               
G09  26318006.800 7 138317370.218 7      2386.812 7        43.621               
G22  28038294.326 7 147357493.829 7     -2139.749 7        42.786               
G06  27355455.398 8 143769184.547 8      1397.128 8        48.083               
> 2020 12 01 09 31 11.2000000  0  5                                             
G07  28871729.332 7 151737276.566 7      3991.681 7        45.163               
G03  26219783.997 7 137792603.357 7     -1281.431 7        44.682               
G09  26317955.909 7 138317131.495 7      2387.975 7        44.025               
G22  28038330.475 7 147357707.967 7     -2140.897 7        43.125               
G06  27355423.993 7 143769044.939 7      1397.782 7        47.838               
> 2020 12 01 09 31 11.3000000  0  5                                             
G07  28871650.109 7 151736877.322 7      3991.016 7        45.460               
G03  26219806.378 7 137792730.973 7     -1277.270 7        44.649               
G09  26317905.581 7 138316892.789 7      2388.408 7        44.460               
G22  28038366.141 7 147357922.086 7     -2143.247 7        43.284               
G06  27355393.187 7 143768905.300 7      1397.554 7        47.718               
> 2020 12 01 09 31 11.4000000  0  5                                             
G07  28871571.959 7 151736478.101 7      3990.822 7        46.206               
G03  26219825.087 7 137792858.558 7     -1275.580 7        44.578               
G09  26317853.385 7 138316654.184 7      2386.212 7        44.122               
G22  28038402.791 7 147358136.143 7     -2142.511 7        43.477               
G06  27355360.666 7 143768765.603 7      1396.261 7        47.843               
> 2020 12 01 09 31 11.5000000  0  5                                             
G07  28871492.299 7 151736078.947 7      3991.210 7        47.110               
G03  26219843.805 7 137792986.154 7     -1276.919 7        44.819               
G09  26317802.789 7 138316415.576 7      2379.150 7        43.794               
G22  28038439.807 7 147358350.248 7     -2147.783 7        43.441               
G06  27355327.849 7 143768625.983 7      1394.220 7        47.989               
> 2020 12 01 09 31 11.6000000  0  5                                             
G07  28871412.398 7 151735679.764 7      3992.598 7        47.766               
G03  26219860.226 7 137793113.798 7     -1273.243 7        44.619               
G09  26317753.087 7 138316176.930 7      2388.337 7        43.648               
G22  28038473.865 7 147358564.400 7     -2144.863 7        43.651               
G06  27355296.766 7 143768486.370 7      1394.954 7        47.944               
> 2020 12 01 09 31 11.7000000  0  5                                             
G07  28871331.817 8 151735280.537 8      3992.842 8        48.227               
G03  26219875.880 7 137793241.427 7     -1275.998 7        44.597               
G09  26317702.267 7 138315938.261 7      2389.699 7        43.902               
G22  28038509.290 7 147358778.524 7     -2143.603 7        43.747               
G06  27355264.906 7 143768346.757 7      1395.495 7        47.913               
> 2020 12 01 09 31 11.8000000  0  5                                             
G07  28871251.648 8 151734881.345 8      3991.491 8        48.280               
G03  26219893.481 7 137793369.087 7     -1278.596 7        44.794               
G09  26317650.974 7 138315699.703 7      2380.976 7        43.425               
G22  28038544.885 7 147358992.630 7     -2142.213 7        43.783               
G06  27355229.847 7 143768207.143 7      1397.350 7        47.598               
> 2020 12 01 09 31 11.9000000  0  5                                             
G07  28871169.969 8 151734482.142 8      3993.197 8        48.353               
G03  26219912.743 7 137793496.722 7     -1279.279 7        44.888               
G09  26317602.817 7 138315461.101 7      2383.450 7        43.520               
G22  28038580.999 7 147359206.750 7     -2141.041 7        44.085               
G06  27355195.502 7 143768067.528 7      1397.843 7        47.351               
> 2020 12 01 09 31 12.0000000  0  5                                             
G07  28871089.290 8 151734082.889 8      3993.442 8        48.669               
G03  26219931.979 7 137793624.297 7     -1273.048 7        44.734               
G09  26317549.317 7 138315222.405 7      2385.295 7        43.617               
G22  28038614.709 7 147359420.814 7     -2139.100 7        44.054               
G06  27355162.078 7 143767927.920 7      1395.204 7        47.145               
> 2020 12 01 09 31 12.1000000  0  5                                             
G07  28871007.664 8 151733683.655 8      3993.014 8        48.884               
G03  26219952.904 7 137793751.890 7     -1273.930 7        44.967               
G09  26317500.436 7 138314983.709 7      2386.132 7        43.474               
G22  28038647.722 7 147359634.908 7     -2147.875 7        44.119               
G06  27355130.021 7 143767788.252 7      1393.161 7        47.358               
> 2020 12 01 09 31 12.2000000  0  5                                             
G07  28870923.001 8 151733284.388 8      3993.273 8        48.515               
G03  26219972.765 7 137793879.487 7     -1275.516 7        44.980               
G09  26317452.074 7 138314745.041 7      2385.464 7        44.039               
G22  28038681.914 7 147359849.014 7     -2143.650 7        43.753               
G06  27355098.482 7 143767648.648 7      1396.418 7        47.588               
> 2020 12 01 09 31 12.3000000  0  5                                             
G07  28870837.149 7 151732885.104 7      3995.569 7        47.779               
G03  26219993.431 7 137794007.043 7     -1274.277 7        45.204               
G09  26317402.550 7 138314506.328 7      2384.794 7        44.548               
G22  28038716.741 7 147360063.065 7     -2145.707 7        43.658               
G06  27355064.415 7 143767509.026 7      1396.674 7        47.270               
> 2020 12 01 09 31 12.4000000  0  5                                             
G07  28870750.145 7 151732485.863 7      3993.058 7        46.854               
G03  26220010.916 7 137794134.619 7     -1275.331 7        45.196               
G09  26317348.934 7 138314267.629 7      2389.447 7        44.786               
G22  28038753.381 7 147360277.127 7     -2139.369 7        43.678               
G06  27355031.384 7 143767369.273 7      1397.683 7        47.165               
> 2020 12 01 09 31 12.5000000  0  5                                             
G07  28870666.875 7 151732086.581 7      3992.597 7        46.556               
G03  26220028.052 7 137794262.176 7     -1277.018 7        44.909               
G09  26317296.381 7 138314028.938 7      2382.698 7        44.515               
G22  28038790.397 7 147360491.138 7     -2141.651 7        43.602               
G06  27355001.838 7 143767229.627 7      1396.752 7        47.213               
> 2020 12 01 09 31 12.6000000  0  5                                             
G07  28870585.777 7 151731687.334 7      3993.213 7        46.310               
G03  26220047.226 7 137794389.790 7     -1275.322 7        45.000               
G09  26317244.990 7 138313790.234 7      2385.785 7        44.617               
G22  28038827.243 7 147360705.221 7     -2142.697 7        43.856               
G06  27354972.515 7 143767090.018 7      1396.211 7        47.737               
> 2020 12 01 09 31 12.7000000  0  5                                             
G07  28870506.412 7 151731288.097 7      3992.144 7        46.517               
G03  26220066.310 7 137794517.413 7     -1280.366 7        45.054               
G09  26317194.787 7 138313551.591 7      2384.578 7        44.496               
G22  28038861.667 7 147360919.318 7     -2137.977 7        44.113               
G06  27354941.360 7 143766950.453 7      1397.166 7        47.820               
> 2020 12 01 09 31 12.8000000  0  5                                             
G07  28870427.252 7 151730888.842 7      3994.266 7        46.916               
G03  26220082.901 7 137794645.011 7     -1274.438 7        44.596               
G09  26317144.512 7 138313312.937 7      2384.064 7        44.456               
G22  28038898.960 7 147361133.392 7     -2140.591 7        44.009               
G06  27354910.089 7 143766810.837 7      1394.783 7        47.785               
> 2020 12 01 09 31 12.9000000  0  5                                             
G07  28870348.628 7 151730489.611 7      3990.908 7        47.300               
G03  26220101.163 7 137794772.658 7     -1275.493 7        44.629               
G09  26317093.228 7 138313074.317 7      2390.575 7        44.051               
G22  28038933.528 7 147361347.507 7     -2142.042 7        43.992               
G06  27354876.862 7 143766671.237 7      1397.032 7        47.673               
> 2020 12 01 09 31 13.0000000  0  5                                             
G07  28870268.334 7 151730090.443 7      3992.731 7        47.554               
G03  26220122.043 7 137794900.378 7     -1279.138 7        44.572               
G09  26317044.482 7 138312835.763 7      2388.616 7        43.824               
G22  28038966.844 7 147361561.701 7     -2138.292 7        43.804               
G06  27354845.520 7 143766531.738 7      1396.385 7        47.576               
> 2020 12 01 09 31 13.1000000  0  5                                             
G07  28870188.343 7 151729691.290 7      3989.717 7        47.632               
G03  26220142.173 7 137795028.119 7     -1280.182 7        44.341               
G09  26316994.448 7 138312597.154 7      2385.692 7        43.816               
G22  28039003.333 7 147361775.886 7     -2140.887 7        44.042               
G06  27354815.839 7 143766392.243 7      1393.210 7        47.956               
> 2020 12 01 09 31 13.2000000  0  5                                             
G07  28870107.897 7 151729292.157 7      3990.242 7        47.537               
G03  26220158.585 7 137795155.835 7     -1278.808 7        44.312               
G09  26316940.618 7 138312358.666 7      2384.366 7        43.691               
G22  28039039.312 7 147361990.069 7     -2141.847 7        44.147               
G06  27354782.826 7 143766252.796 7      1395.363 7        47.647               
> 2020 12 01 09 31 13.3000000  0  5                                             
G07  28870025.887 7 151728892.994 7      3994.847 7        47.382               
G03  26220178.349 7 137795283.542 7     -1277.294 7        44.351               
G09  26316891.353 7 138312120.072 7      2385.514 7        43.603               
G22  28039074.327 7 147362204.258 7     -2144.622 7        44.169               
G06  27354750.063 7 143766113.269 7      1395.017 7        47.634               
> 2020 12 01 09 31 13.4000000  0  5                                             
G07  28869943.993 7 151728493.811 7      3993.406 7        47.271               
G03  26220197.853 7 137795411.232 7     -1276.546 7        44.406               
G09  26316841.632 7 138311881.501 7      2385.978 7        43.921               
G22  28039108.439 7 147362418.417 7     -2143.068 7        43.809               
G06  27354720.553 8 143765973.734 8      1395.764 8        48.002               
> 2020 12 01 09 31 13.5000000  0  5                                             
G07  28869862.189 7 151728094.651 7      3989.894 7        47.493               
G03  26220217.133 7 137795538.927 7     -1279.203 7        44.601               
G09  26316787.212 7 138311642.878 7      2386.382 7        43.696               
G22  28039142.640 7 147362632.587 7     -2141.698 7        44.024               
G06  27354691.256 8 143765834.241 8      1394.341 8        48.155               
> 2020 12 01 09 31 13.6000000  0  5                                             
G07  28869781.867 7 151727695.517 7      3990.995 7        47.646               
G03  26220236.271 7 137795666.650 7     -1273.212 7        44.723               
G09  26316738.171 7 138311404.348 7      2379.893 7        43.823               
G22  28039177.091 7 147362846.769 7     -2140.203 7        43.899               
G06  27354658.744 8 143765694.772 8      1395.131 8        48.156               
> 2020 12 01 09 31 13.7000000  0  5                                             
G07  28869700.644 7 151727296.385 7      3989.853 7        47.771               
G03  26220254.828 7 137795794.401 7     -1276.386 7        44.903               
G09  26316686.842 7 138311165.829 7      2384.901 7        44.009               
G22  28039211.927 7 147363060.989 7     -2139.741 7        43.999               
G06  27354624.703 7 143765555.360 7      1393.408 7        47.730               
> 2020 12 01 09 31 13.8000000  0  5                                             
G07  28869619.089 7 151726897.263 7      3989.452 7        47.667               
G03  26220274.734 7 137795922.139 7     -1279.940 7        45.065               
G09  26316632.636 7 138310927.284 7      2385.342 7        44.079               
G22  28039247.906 7 147363275.188 7     -2139.552 7        43.853               
G06  27354592.387 7 143765415.900 7      1394.707 7        47.673               
> 2020 12 01 09 31 13.9000000  0  5                                             
G07  28869535.793 7 151726498.100 7      3995.445 7        47.564               
G03  26220294.202 7 137796049.891 7     -1279.003 7        45.020               
G09  26316578.413 7 138310688.694 7      2385.839 7        43.616               
G22  28039283.001 7 147363489.375 7     -2139.647 7        43.952               
G06  27354560.562 7 143765276.446 7      1394.973 7        47.379               
> 2020 12 01 09 31 14.0000000  0  5                                             
G07  28869451.684 7 151726098.921 7      3992.489 7        46.983               
G03  26220310.490 7 137796177.640 7     -1276.957 7        44.947               
G09  26316528.924 7 138310450.148 7      2383.808 7        43.339               
G22  28039321.759 7 147363703.581 7     -2143.166 7        44.091               
G06  27354528.461 7 143765137.012 7      1393.478 7        47.262               
> 2020 12 01 09 31 14.1000000  0  5                                             
G07  28869369.575 7 151725699.787 7      3993.532 7        46.740               
G03  26220325.705 7 137796305.388 7     -1280.582 7        44.827               
G09  26316479.141 7 138310211.683 7      2385.527 7        43.349               
G22  28039356.943 7 147363917.821 7     -2141.223 7        44.010               
G06  27354496.189 7 143764997.552 7      1395.468 7        47.351               
> 2020 12 01 09 31 14.2000000  0  5                                             
G07  28869289.495 7 151725300.671 7      3989.483 7        46.793               
G03  26220341.716 7 137796433.150 7     -1277.159 7        44.736               
G09  26316431.815 7 138309973.108 7      2384.739 7        43.598               
G22  28039392.100 7 147364132.019 7     -2141.081 7        44.188               
G06  27354465.017 7 143764858.138 7      1392.769 7        47.676               
> 2020 12 01 09 31 14.3000000  0  5                                             
G07  28869208.575 7 151724901.521 7      3993.477 7        47.208               
G03  26220362.945 7 137796560.914 7     -1276.905 7        44.871               
G09  26316385.722 7 138309734.585 7      2385.791 7        44.366               
G22  28039425.614 7 147364346.196 7     -2142.528 7        43.889               
G06  27354433.558 7 143764718.713 7      1395.043 7        47.885               
> 2020 12 01 09 31 14.4000000  0  5                                             
G07  28869127.870 7 151724502.386 7      3991.697 7        47.463               
G03  26220384.030 7 137796688.680 7     -1275.052 7        44.799               
G09  26316332.553 7 138309496.018 7      2387.448 7        44.225               
G22  28039458.502 7 147364560.420 7     -2140.857 7        43.539               
G06  27354403.172 8 143764579.277 8      1394.712 8        48.091               
> 2020 12 01 09 31 14.5000000  0  5                                             
G07  28869046.870 7 151724103.272 7      3992.662 7        47.524               
G03  26220402.408 7 137796816.444 7     -1280.378 7        44.639               
G09  26316284.164 7 138309257.495 7      2384.081 7        44.625               
G22  28039495.321 7 147364774.644 7     -2141.877 7        43.412               
G06  27354370.034 8 143764439.860 8      1394.926 8        48.042               
> 2020 12 01 09 31 14.6000000  0  5                                             
G07  28868966.432 7 151723704.165 7      3990.510 7        47.762               
G03  26220420.626 7 137796944.245 7     -1277.375 7        44.392               
G09  26316235.381 7 138309019.057 7      2386.018 7        45.291               
G22  28039529.075 7 147364988.865 7     -2143.949 7        43.316               
G06  27354337.012 8 143764300.482 8      1393.559 8        48.224               
> 2020 12 01 09 31 14.7000000  0  5                                             
G07  28868885.084 7 151723305.011 7      3993.464 7        47.679               
G03  26220440.183 7 137797071.985 7     -1276.734 7        44.262               
G09  26316185.535 7 138308780.515 7      2385.221 7        45.381               
G22  28039567.092 7 147365203.069 7     -2141.726 7        43.400               
G06  27354304.740 8 143764161.067 8      1395.042 8        48.146               
> 2020 12 01 09 31 14.8000000  0  5                                             
G07  28868803.243 7 151722905.870 7      3992.965 7        47.731               
G03  26220458.856 7 137797199.740 7     -1280.668 7        44.566               
G09  26316135.994 7 138308541.980 7      2388.437 7        45.313               
G22  28039604.072 7 147365417.294 7     -2141.886 7        43.599               
G06  27354270.503 7 143764021.644 7      1395.269 7        47.909               
> 2020 12 01 09 31 14.9000000  0  5                                             
G07  28868722.190 8 151722506.693 8      3990.659 8        48.053               
G03  26220475.832 7 137797327.510 7     -1277.004 7        44.610               
G09  26316085.255 7 138308303.409 7      2387.029 7        45.545               
G22  28039639.309 7 147365631.453 7     -2142.650 7        43.772               
G06  27354238.348 8 143763882.209 8      1393.341 8        48.031               
> 2020 12 01 09 31 15.1000000  0  5                                             
G07  28868559.510 8 151721708.426 8      3991.195 8        48.358               
G03  26220516.305 7 137797583.103 7     -1275.624 7        44.395               
G09  26315983.196 7 138307826.400 7      2382.411 7        45.591               
G22  28039710.884 7 147366059.936 7     -2141.604 7        43.772               
G06  27354171.786 7 143763603.494 7      1392.858 7        47.415               
> 2020 12 01 09 31 15.2000000  0  5                                             
G07  28868475.526 7 151721309.330 7      3986.820 7        47.963               
G03  26220535.184 7 137797710.902 7     -1282.571 7        44.414               
G09  26315930.652 7 138307587.896 7      2385.842 7        45.274               
G22  28039746.586 7 147366274.178 7     -2138.803 7        43.919               
G06  27354138.228 7 143763464.124 7      1394.145 7        47.361               
> 2020 12 01 09 31 15.3000000  0  5                                             
G07  28868391.380 7 151720910.331 7      3987.881 7        47.572               
G03  26220554.438 7 137797838.761 7     -1279.050 7        44.283               
G09  26315878.394 7 138307349.434 7      2388.156 7        45.233               
G22  28039782.422 7 147366488.464 7     -2146.756 7        43.789               
G06  27354106.117 7 143763324.822 7      1392.579 7        47.224               
> 2020 12 01 09 31 15.4000000  0  5                                             
G07  28868308.039 7 151720511.317 7      3988.539 7        46.992               
G03  26220575.738 7 137797966.595 7     -1277.488 7        44.367               
G09  26315826.851 7 138307110.936 7      2383.603 7        45.015               
G22  28039815.141 7 147366702.742 7     -2144.312 7        43.444               
G06  27354074.328 7 143763185.521 7      1392.349 7        47.221               
> 2020 12 01 09 31 15.5000000  0  5                                             
G07  28868227.110 7 151720112.223 7      3991.694 7        46.638               
G03  26220594.616 7 137798094.434 7     -1278.496 7        44.512               
G09  26315776.925 7 138306872.486 7      2384.795 7        45.362               
G22  28039850.861 7 147366917.026 7     -2143.642 7        43.482               
G06  27354042.191 7 143763046.164 7      1391.714 7        47.358               
> 2020 12 01 09 31 15.6000000  0  5                                             
G07  28868146.923 7 151719713.101 7      3991.418 7        46.825               
G03  26220612.182 7 137798222.262 7     -1278.929 7        44.358               
G09  26315722.612 7 138306634.062 7      2380.898 7        44.564               
G22  28039884.535 7 147367131.276 7     -2144.458 7        43.054               
G06  27354011.751 7 143762906.840 7      1393.724 7        47.182               
> 2020 12 01 09 31 15.7000000  0  5                                             
G07  28868067.040 7 151719314.005 7      3993.193 7        47.105               
G03  26220629.961 7 137798350.122 7     -1280.006 7        44.398               
G09  26315672.221 7 138306395.501 7      2386.339 7        44.715               
G22  28039917.101 7 147367345.544 7     -2140.951 7        43.097               
G06  27353978.970 7 143762767.564 7      1392.616 7        47.045               
> 2020 12 01 09 31 15.8000000  0  5                                             
G07  28867986.665 7 151718914.865 7      3994.007 7        47.090               
G03  26220648.804 7 137798477.942 7     -1280.446 7        44.561               
G09  26315615.022 7 138306157.076 7      2390.231 7        44.013               
G22  28039952.107 7 147367559.800 7     -2142.352 7        43.068               
G06  27353948.343 7 143762628.233 7      1393.053 7        46.943               
> 2020 12 01 09 31 15.9000000  0  5                                             
G07  28867903.922 7 151718515.782 7      3992.149 7        47.027               
G03  26220666.557 7 137798605.786 7     -1280.402 7        44.395               
G09  26315563.381 7 138305918.610 7      2387.106 7        43.878               
G22  28039987.854 7 147367774.085 7     -2146.709 7        42.953               
G06  27353915.187 7 143762488.953 7      1392.102 7        46.741               
> 2020 12 01 09 31 16.0000000  0  5                                             
G07  28867822.413 7 151718116.725 7      3991.990 7        46.865               
G03  26220684.390 7 137798733.633 7     -1277.279 7        44.286               
G09  26315517.743 7 138305680.165 7      2385.759 7        44.448               
G22  28040023.234 7 147367988.357 7     -2144.567 7        43.146               
G06  27353884.336 7 143762349.631 7      1392.124 7        46.928               
> 2020 12 01 09 31 16.1000000  0  5                                             
G07  28867740.957 7 151717717.670 7      3992.268 7        47.230               
G03  26220704.556 7 137798861.524 7     -1281.977 7        44.173               
G09  26315468.130 7 138305441.657 7      2383.998 7        44.779               
G22  28040060.313 7 147368202.664 7     -2139.296 7        43.325               
G06  27353853.012 7 143762210.306 7      1394.411 7        47.100               
> 2020 12 01 09 31 16.2000000  0  5                                             
G07  28867661.297 7 151717318.610 7      3990.484 7        47.473               
G03  26220723.220 7 137798989.413 7     -1279.248 7        43.800               
G09  26315414.621 7 138305203.253 7      2385.793 7        44.325               
G22  28040097.980 7 147368416.954 7     -2142.806 7        43.480               
G06  27353820.910 7 143762071.096 7      1391.515 7        46.921               
> 2020 12 01 09 31 16.3000000  0  5                                             
G07  28867581.547 7 151716919.534 7      3992.464 7        47.772               
G03  26220741.982 7 137799117.271 7     -1276.029 7        43.531               
G09  26315364.463 7 138304964.794 7      2383.022 7        44.337               
G22  28040134.424 7 147368631.242 7     -2143.965 7        43.691               
G06  27353789.845 7 143761931.863 7      1391.659 7        46.990               
> 2020 12 01 09 31 16.4000000  0  5                                             
G07  28867502.289 8 151716520.376 8      3991.559 8        48.095               
G03  26220759.905 7 137799245.056 7     -1279.164 7        43.400               
G09  26315312.080 7 138304726.274 7      2387.829 7        44.532               
G22  28040169.278 7 147368845.437 7     -2144.933 7        43.737               
G06  27353757.314 7 143761792.455 7      1393.783 7        47.119               
> 2020 12 01 09 31 16.5000000  0  5                                             
G07  28867422.165 8 151716121.202 8      3990.364 8        48.255               
G03  26220776.943 7 137799372.842 7     -1278.093 7        43.426               
G09  26315256.936 7 138304487.734 7      2384.958 7        44.327               
G22  28040204.256 7 147369059.666 7     -2137.060 7        43.461               
G06  27353725.212 7 143761653.081 7      1392.943 7        47.321               
> 2020 12 01 09 31 16.6000000  0  5                                             
G07  28867340.646 8 151715722.121 8      3989.580 8        48.179               
G03  26220796.974 7 137799500.745 7     -1279.858 7        43.760               
G09  26315209.306 7 138304249.298 7      2383.904 7        44.614               
G22  28040239.628 7 147369273.967 7     -2141.451 7        43.280               
G06  27353691.493 7 143761513.864 7      1393.881 7        47.246               
> 2020 12 01 09 31 16.7000000  0  5                                             
G07  28867256.849 8 151715323.159 8      3990.264 8        48.130               
G03  26220816.585 7 137799628.716 7     -1277.448 7        44.094               
G09  26315160.005 7 138304010.966 7      2380.291 7        45.013               
G22  28040275.295 7 147369488.357 7     -2148.852 7        43.348               
G06  27353657.113 7 143761374.723 7      1391.785 7        46.739               
> 2020 12 01 09 31 16.8000000  0  5                                             
G07  28867174.643 8 151714924.216 8      3991.023 8        48.091               
G03  26220837.296 7 137799756.738 7     -1278.970 7        44.150               
G09  26315112.349 7 138303772.708 7      2384.931 7        45.154               
G22  28040309.344 7 147369702.807 7     -2142.980 7        43.697               
G06  27353625.852 7 143761235.621 7      1390.274 7        46.610               
> 2020 12 01 09 31 16.9000000  0  5                                             
G07  28867093.401 8 151714525.260 8      3990.739 8        48.075               
G03  26220857.514 7 137799884.739 7     -1278.430 7        44.439               
G09  26315061.377 7 138303534.329 7      2383.516 7        44.892               
G22  28040344.493 7 147369917.231 7     -2145.482 7        43.818               
G06  27353594.268 7 143761096.510 7      1390.812 7        46.950               
> 2020 12 01 09 31 17.0000000  0  5                                             
G07  28867013.375 8 151714126.340 8      3989.102 8        48.430               
G03  26220876.473 7 137800012.762 7     -1280.277 7        44.393               
G09  26315010.683 7 138303295.999 7      2383.594 7        45.019               
G22  28040381.249 7 147370131.671 7     -2145.749 7        44.135               
G06  27353563.069 7 143760957.400 7      1391.595 7        46.848               
> 2020 12 01 09 31 17.1000000  0  5                                             
G07  28866932.062 8 151713727.429 8      3989.073 8        48.753               
G03  26220895.004 7 137800140.815 7     -1280.205 7        44.502               
G09  26314959.024 7 138303057.756 7      2383.737 7        45.219               
G22  28040417.157 7 147370346.107 7     -2148.741 7        44.212               
G06  27353531.995 7 143760818.321 7      1391.917 7        46.646               
> 2020 12 01 09 31 17.2000000  0  5                                             
G07  28866850.418 8 151713328.498 8      3991.400 8        48.900               
G03  26220910.568 7 137800268.810 7     -1276.040 7        44.500               
G09  26314908.133 7 138302819.426 7      2382.905 7        45.383               
G22  28040450.938 7 147370560.537 7     -2142.158 7        44.330               
G06  27353501.162 7 143760679.212 7      1391.516 7        46.837               
> 2020 12 01 09 31 17.3000000  0  5                                             
G07  28866769.606 8 151712929.589 8      3991.109 8        48.575               
G03  26220930.902 7 137800396.884 7     -1280.577 7        44.448               
G09  26314857.983 7 138302581.150 7      2383.976 7        45.253               
G22  28040484.273 7 147370774.982 7     -2142.402 7        44.367               
G06  27353470.445 7 143760540.162 7      1392.652 7        46.948               
> 2020 12 01 09 31 17.4000000  0  5                                             
G07  28866685.362 8 151712530.641 8      3987.093 8        48.399               
G03  26220947.485 7 137800524.957 7     -1279.557 7        44.524               
G09  26314806.931 7 138302342.862 7      2383.187 7        45.302               
G22  28040518.707 7 147370989.417 7     -2145.752 7        44.655               
G06  27353438.593 7 143760401.124 7      1391.362 7        46.799               
> 2020 12 01 09 31 17.5000000  0  5                                             
G07  28866601.503 7 151712131.627 7      3988.475 7        47.673               
G03  26220967.489 7 137800652.944 7     -1280.163 7        44.778               
G09  26314757.952 7 138302104.555 7      2383.636 7        45.224               
G22  28040555.195 7 147371203.810 7     -2145.431 7        44.706               
G06  27353406.822 7 143760262.041 7      1389.849 7        46.753               
> 2020 12 01 09 31 17.6000000  0  5                                             
G07  28866517.224 7 151711732.682 7      3988.843 7        47.023               
G03  26220988.298 7 137800780.981 7     -1278.188 7        44.901               
G09  26314706.123 7 138301866.298 7      2384.943 7        45.278               
G22  28040590.031 7 147371418.244 7     -2145.337 7        44.477               
G06  27353374.238 7 143760122.932 7      1389.970 7        46.963               
> 2020 12 01 09 31 17.7000000  0  5                                             
G07  28866433.480 7 151711333.748 7      3992.763 7        46.560               
G03  26221005.765 7 137800908.962 7     -1280.194 7        44.775               
G09  26314655.000 7 138301627.931 7      2384.716 7        45.118               
G22  28040626.707 7 147371632.653 7     -2144.368 7        44.547               
G06  27353342.386 7 143759983.788 7      1392.296 7        47.062               
> 2020 12 01 09 31 17.8000000  0  5                                             
G07  28866352.507 7 151710934.731 7      3988.393 7        46.603               
G03  26221025.850 7 137801036.958 7     -1278.500 7        44.818               
G09  26314603.868 7 138301389.562 7      2381.525 7        45.215               
G22  28040659.961 7 147371847.016 7     -2144.380 7        44.692               
G06  27353310.981 7 143759844.658 7      1392.329 7        46.968               
> 2020 12 01 09 31 17.9000000  0  5                                             
G07  28866273.410 7 151710535.711 7      3989.390 7        46.749               
G03  26221047.024 7 137801164.934 7     -1278.731 7        44.589               
G09  26314552.012 7 138301151.131 7      2389.958 7        44.573               
G22  28040696.271 7 147372061.380 7     -2140.115 7        44.825               
G06  27353279.684 7 143759705.564 7      1388.747 7        46.841               
> 2020 12 01 09 31 18.0000000  0  5                                             
G07  28866193.937 7 151710136.789 7      3988.482 7        46.827               
G03  26221065.018 7 137801292.934 7     -1278.668 7        44.726               
G09  26314502.729 7 138300912.762 7      2383.163 7        44.468               
G22  28040732.983 7 147372275.799 7     -2147.926 7        44.600               
G06  27353247.993 7 143759566.469 7      1390.622 7        46.858               
> 2020 12 01 09 31 18.1000000  0  5                                             
G07  28866114.822 7 151709737.887 7      3990.277 7        47.048               
G03  26221080.770 7 137801420.984 7     -1281.737 7        44.455               
G09  26314454.277 7 138300674.530 7      2382.756 7        44.854               
G22  28040770.142 7 147372490.231 7     -2144.221 7        44.169               
G06  27353217.339 7 143759427.390 7      1388.256 7        46.789               
> 2020 12 01 09 31 18.2000000  0  5                                             
G07  28866036.064 7 151709338.933 7      3990.329 7        47.009               
G03  26221100.051 7 137801549.002 7     -1280.583 7        44.503               
G09  26314399.545 7 138300436.097 7      2384.458 7        44.358               
G22  28040802.556 7 147372704.645 7     -2144.500 7        44.135               
G06  27353185.264 7 143759288.302 7      1388.738 7        46.786               
> 2020 12 01 09 31 18.3000000  0  5                                             
G07  28865955.886 7 151708939.990 7      3991.311 7        47.063               
G03  26221119.644 7 137801677.052 7     -1277.728 7        44.473               
G09  26314349.547 7 138300197.890 7      2379.877 7        44.545               
G22  28040838.598 7 147372919.095 7     -2145.008 7        43.960               
G06  27353153.162 7 143759149.286 7      1389.062 7        46.691               
> 2020 12 01 09 31 18.4000000  0  5                                             
G07  28865874.528 7 151708541.058 7      3989.506 7        47.381               
G03  26221140.542 7 137801805.121 7     -1279.777 7        44.833               
G09  26314299.272 7 138299959.636 7      2380.737 7        44.415               
G22  28040872.451 7 147373133.595 7     -2145.359 7        43.777               
G06  27353122.151 7 143759010.267 7      1390.210 7        46.944               
> 2020 12 01 09 31 18.5000000  0  5                                             
G07  28865791.813 7 151708142.155 7      3989.049 7        47.163               
G03  26221161.315 7 137801933.250 7     -1280.065 7        44.948               
G09  26314246.836 7 138299721.407 7      2383.419 7        44.632               
G22  28040904.838 7 147373348.104 7     -2145.646 7        43.498               
G06  27353090.496 7 143758871.292 7      1391.170 7        47.049               
> 2020 12 01 09 31 18.6000000  0  5                                             
G07  28865708.275 7 151707743.202 7      3991.263 7        46.899               
G03  26221179.693 7 137802061.303 7     -1279.250 7        44.772               
G09  26314200.090 7 138299483.125 7      2383.022 7        45.194               
G22  28040941.229 7 147373562.519 7     -2142.898 7        43.291               
G06  27353059.591 7 143758732.290 7      1390.741 7        46.970               
> 2020 12 01 09 31 18.7000000  0  5                                             
G07  28865624.630 7 151707344.177 7      3988.058 7        46.613               
G03  26221196.481 7 137802189.301 7     -1277.741 7        44.451               
G09  26314152.085 7 138299244.744 7      2383.551 7        45.879               
G22  28040975.001 7 147373776.889 7     -2142.002 7        43.515               
G06  27353027.463 7 143758593.185 7      1390.932 7        46.946               
> 2020 12 01 09 31 18.8000000  0  5                                             
G07  28865542.531 7 151706945.157 7      3987.034 7        46.273               
G03  26221213.519 7 137802317.340 7     -1281.630 7        44.327               
G09  26314101.972 7 138299006.406 7      2385.602 7        46.208               
G22  28041010.855 7 147373991.279 7     -2146.393 7        43.470               
G06  27352995.066 7 143758454.109 7      1389.321 7        46.891               
> 2020 12 01 09 31 18.9000000  0  5                                             
G07  28865460.628 7 151706546.140 7      3990.083 7        46.067               
G03  26221231.781 7 137802445.334 7     -1279.233 7        44.368               
G09  26314048.910 7 138298768.038 7      2382.943 7        46.071               
G22  28041048.067 7 147374205.652 7     -2146.398 7        43.704               
G06  27352963.992 7 143758315.035 7      1390.064 7        46.849               
> 2020 12 01 09 31 19.0000000  0  5                                             
G07  28865377.484 7 151706147.146 7      3989.238 7        45.926               
G03  26221249.748 7 137802573.350 7     -1279.023 7        44.878               
G09  26313992.720 7 138298529.742 7      2381.158 7        45.154               
G22  28041084.502 7 147374420.078 7     -2143.956 7        43.982               
G06  27352932.623 7 143758175.995 7      1388.829 7        47.139               
> 2020 12 01 09 31 19.1000000  0  5                                             
G07  28865297.511 7 151705748.189 7      3990.552 7        46.284               
G03  26221269.628 7 137802701.369 7     -1280.890 7        44.807               
G09  26313941.258 7 138298291.497 7      2379.569 7        44.497               
G22  28041120.339 7 147374634.496 7     -2144.705 7        43.798               
G06  27352901.129 7 143758036.950 7      1390.220 7        47.597               
> 2020 12 01 09 31 19.2000000  0  5                                             
G07  28865217.351 7 151705349.265 7      3988.165 7        46.496               
G03  26221289.775 7 137802829.439 7     -1282.097 7        44.610               
G09  26313890.983 7 138298053.153 7      2382.175 7        44.607               
G22  28041155.559 7 147374848.919 7     -2144.989 7        43.621               
G06  27352867.580 7 143757897.922 7      1391.114 7        47.581               
> 2020 12 01 09 31 19.3000000  0  5                                             
G07  28865136.717 7 151704950.319 7      3989.708 7        46.526               
G03  26221310.074 7 137802957.477 7     -1278.813 7        44.399               
G09  26313838.046 7 138297814.825 7      2382.643 7        44.733               
G22  28041193.620 7 147375063.342 7     -2144.071 7        43.921               
G06  27352835.710 7 143757758.890 7      1389.338 7        47.993               
> 2020 12 01 09 31 19.4000000  0  5                                             
G07  28865056.038 7 151704551.344 7      3991.266 7        46.812               
G03  26221327.148 7 137803085.517 7     -1281.076 7        44.098               
G09  26313784.788 7 138297576.504 7      2380.739 7        44.595               
G22  28041230.564 7 147375277.757 7     -2144.384 7        44.185               
G06  27352803.608 8 143757619.903 8      1389.214 8        48.306               
> 2020 12 01 09 31 19.5000000  0  5                                             
G07  28864974.868 7 151704152.430 7      3988.934 7        46.716               
G03  26221343.203 7 137803213.631 7     -1278.772 7        43.909               
G09  26313737.926 7 138297338.282 7      2382.610 7        44.818               
G22  28041262.442 7 147375492.229 7     -2146.021 7        44.041               
G06  27352770.703 8 143757480.946 8      1386.969 8        48.483               
> 2020 12 01 09 31 19.6000000  0  5                                             
G07  28864892.983 7 151703753.521 7      3989.696 7        46.973               
G03  26221361.046 7 137803341.808 7     -1283.209 7        43.864               
G09  26313684.060 7 138297100.052 7      2382.211 7        44.803               
G22  28041297.716 7 147375706.753 7     -2142.343 7        43.969               
G06  27352737.431 8 143757342.020 8      1391.523 8        48.147               
> 2020 12 01 09 31 19.7000000  0  5                                             
G07  28864811.759 7 151703354.615 7      3990.201 7        47.294               
G03  26221379.299 7 137803469.929 7     -1281.127 7        44.131               
G09  26313634.232 7 138296861.858 7      2380.720 7        44.781               
G22  28041332.122 7 147375921.246 7     -2144.771 7        43.797               
G06  27352704.007 7 143757203.018 7      1388.120 7        47.583               
> 2020 12 01 09 31 19.8000000  0  5                                             
G07  28864730.554 7 151702955.707 7      3989.957 7        47.211               
G03  26221399.267 7 137803598.036 7     -1280.412 7        43.977               
G09  26313588.291 7 138296623.551 7      2384.078 7        45.015               
G22  28041368.039 7 147376135.740 7     -2143.415 7        43.451               
G06  27352672.593 7 143757064.111 7      1391.244 7        47.451               
> 2020 12 01 09 31 19.9000000  0  5                                             
G07  28864649.098 7 151702556.769 7      3989.829 7        47.336               
G03  26221419.165 7 137803726.105 7     -1281.102 7        44.065               
G09  26313538.043 7 138296385.263 7      2384.017 7        44.917               
G22  28041403.321 7 147376350.159 7     -2142.229 7        43.528               
G06  27352642.421 7 143756925.183 7      1390.090 7        47.920               
> 2020 12 01 09 31 20.0000000  0  5                                             
G07  28864568.455 7 151702157.833 7      3990.058 7        47.256               
G03  26221442.993 7 137803854.198 7     -1281.037 7        44.185               
G09  26313482.408 7 138296146.955 7      2379.174 7        45.010               
G22  28041437.451 7 147376564.589 7     -2141.754 7        43.480               
G06  27352611.776 8 143756786.200 8      1388.195 8        48.160               
> 2020 12 01 09 31 20.1000000  0  5                                             
G07  28864486.570 7 151701758.921 7      3991.439 7        46.871               
G03  26221462.363 7 137803982.306 7     -1278.465 7        44.339               
G09  26313431.142 7 138295908.755 7      2381.667 7        45.030               
G22  28041471.930 7 147376779.058 7     -2142.643 7        43.504               
G06  27352577.467 7 143756647.210 7      1391.384 7        47.935               
> 2020 12 01 09 31 20.2000000  0  5                                             
G07  28864405.239 7 151701359.993 7      3987.750 7        46.454               
G03  26221481.000 7 137804110.429 7     -1278.529 7        44.098               
G09  26313381.269 7 138295670.528 7      2383.442 7        45.024               
G22  28041506.131 7 147376993.525 7     -2142.411 7        43.323               
G06  27352545.258 7 143756508.314 7      1389.313 7        47.734               
> 2020 12 01 09 31 20.3000000  0  5                                             
G07  28864321.818 7 151700960.981 7      3989.842 7        46.130               
G03  26221498.030 7 137804238.491 7     -1282.408 7        43.872               
G09  26313330.780 7 138295432.144 7      2385.454 7        45.101               
G22  28041541.431 7 147377207.947 7     -2143.810 7        43.354               
G06  27352514.970 7 143756369.312 7      1391.908 7        47.884               
> 2020 12 01 09 31 20.4000000  0  5                                             
G07  28864238.557 7 151700561.969 7      3986.470 7        45.563               
G03  26221513.174 7 137804366.541 7     -1276.817 7        43.918               
G09  26313283.231 7 138295193.848 7      2385.902 7        45.480               
G22  28041581.100 7 147377422.355 7     -2144.712 7        43.627               
G06  27352482.761 8 143756230.304 8      1389.011 8        48.235               
> 2020 12 01 09 31 20.5000000  0  5                                             
G07  28864157.655 7 151700162.951 7      3991.314 7        45.653               
G03  26221529.336 7 137804494.570 7     -1279.912 7        44.286               
G09  26313232.322 7 138294955.573 7      2383.165 7        45.637               
G22  28041617.589 7 147377636.738 7     -2142.369 7        43.963               
G06  27352451.035 8 143756091.333 8      1390.203 8        48.145               
> 2020 12 01 09 31 20.6000000  0  5                                             
G07  28864078.281 7 151699763.909 7      3990.141 7        46.098               
G03  26221549.072 7 137804622.557 7     -1282.338 7        44.667               
G09  26313182.217 7 138294717.223 7      2380.940 7        45.532               
G22  28041654.301 7 147377851.113 7     -2141.849 7        44.097               
G06  27352418.326 7 143755952.289 7      1391.651 7        47.824               
> 2020 12 01 09 31 20.7000000  0  5                                             
G07  28863997.647 7 151699364.892 7      3990.096 7        46.373               
G03  26221572.445 7 137804750.577 7     -1281.486 7        44.763               
G09  26313134.427 7 138294478.854 7      2384.459 7        45.554               
G22  28041687.805 7 147378065.503 7     -2145.215 7        44.276               
G06  27352386.331 7 143755813.255 7      1389.667 7        47.425               
> 2020 12 01 09 31 20.8000000  0  5                                             
G07  28863918.031 7 151698965.888 7      3990.604 7        46.780               
G03  26221590.689 7 137804878.630 7     -1277.648 7        44.677               
G09  26313083.866 7 138294240.467 7      2383.568 7        45.972               
G22  28041722.319 7 147378279.889 7     -2142.603 7        44.362               
G06  27352355.105 7 143755674.239 7      1390.040 7        47.099               
> 2020 12 01 09 31 20.9000000  0  5                                             
G07  28863837.058 7 151698566.899 7      3988.101 7        47.038               
G03  26221611.149 7 137805006.704 7     -1282.868 7        44.553               
G09  26313029.866 7 138294002.183 7      2384.702 7        45.784               
G22  28041759.219 7 147378494.309 7     -2145.839 7        44.621               
G06  27352322.610 7 143755535.271 7      1389.859 7        47.019               
> 2020 12 01 09 31 21.0000000  0  5                                             
G07  28863756.603 7 151698167.869 7      3989.829 7        47.260               
G03  26221630.886 7 137805134.708 7     -1279.286 7        44.658               
G09  26312974.088 7 138293763.765 7      2382.797 7        44.860               
G22  28041794.394 7 147378708.694 7     -2144.903 7        44.755               
G06  27352291.509 7 143755396.273 7      1390.368 7        47.164               
> 2020 12 01 09 31 21.1000000  0  5                                             
G07  28863674.807 7 151697768.875 7      3989.105 7        47.586               
G03  26221652.069 7 137805262.752 7     -1280.919 7        44.954               
G09  26312921.446 7 138293525.453 7      2386.189 7        44.766               
G22  28041829.078 7 147378923.113 7     -2147.918 7        44.587               
G06  27352260.408 7 143755257.273 7      1388.505 7        47.175               
> 2020 12 01 09 31 21.2000000  0  5                                             
G07  28863593.905 7 151697369.809 7      3990.314 7        47.544               
G03  26221668.768 7 137805390.796 7     -1283.187 7        44.885               
G09  26312872.958 7 138293287.080 7      2384.143 7        45.143               
G22  28041861.313 7 147379137.458 7     -2143.340 7        44.188               
G06  27352227.681 7 143755118.257 7      1391.338 7        47.215               
> 2020 12 01 09 31 21.3000000  0  5                                             
G07  28863512.253 7 151696970.778 7      3988.820 7        47.701               
G03  26221686.271 7 137805518.827 7     -1279.390 7        44.833               
G09  26312826.257 7 138293048.747 7      2380.483 7        45.558               
G22  28041897.918 7 147379351.804 7     -2143.584 7        43.962               
G06  27352196.464 7 143754979.281 7      1389.399 7        47.236               
> 2020 12 01 09 31 21.4000000  0  5                                             
G07  28863428.777 7 151696571.769 7      3991.266 7        47.952               
G03  26221702.523 7 137805646.893 7     -1281.407 7        44.646               
G09  26312774.321 7 138292810.420 7      2387.074 7        45.894               
G22  28041935.524 7 147379566.213 7     -2142.422 7        44.204               
G06  27352165.988 7 143754840.308 7      1389.235 7        47.609               
> 2020 12 01 09 31 21.5000000  0  5                                             
G07  28863346.723 7 151696172.723 7      3987.332 7        47.841               
G03  26221723.277 7 137805774.917 7     -1277.423 7        44.634               
G09  26312723.519 7 138292572.059 7      2381.857 7        45.840               
G22  28041970.985 7 147379780.570 7     -2144.719 7        44.539               
G06  27352134.923 7 143754701.330 7      1389.572 7        47.815               
> 2020 12 01 09 31 21.6000000  0  5                                             
G07  28863264.490 7 151695773.773 7      3982.997 7        47.529               
G03  26221742.263 7 137805903.032 7     -1282.594 7        44.729               
G09  26312670.475 7 138292333.716 7      2383.966 7        45.392               
G22  28042006.589 7 147379995.012 7     -2142.172 7        44.705               
G06  27352099.783 7 143754562.462 7      1389.115 7        47.759               
> 2020 12 01 09 31 21.7000000  0  5                                             
G07  28863182.953 7 151695374.824 7      3989.633 7        46.960               
G03  26221762.705 7 137806031.164 7     -1280.245 7        44.895               
G09  26312621.273 7 138292095.487 7      2381.403 7        45.609               
G22  28042041.934 7 147380209.476 7     -2143.505 7        44.494               
G06  27352064.966 7 143754423.595 7      1391.329 7        47.527               
> 2020 12 01 09 31 21.8000000  0  5                                             
G07  28863100.774 7 151694975.842 7      3990.414 7        46.692               
G03  26221782.710 7 137806159.242 7     -1283.673 7        44.809               
G09  26312570.141 7 138291857.139 7      2382.221 7        45.519               
G22  28042077.627 7 147380423.875 7     -2144.921 7        44.530               
G06  27352032.667 7 143754284.648 7      1389.708 7        47.685               
> 2020 12 01 09 31 21.9000000  0  5                                             
G07  28863019.505 7 151694576.824 7      3989.921 7        46.577               
G03  26221798.211 7 137806287.319 7     -1284.296 7        44.629               
G09  26312520.250 7 138291618.864 7      2384.849 7        45.423               
G22  28042113.696 7 147380638.301 7     -2145.149 7        44.932               
G06  27352001.995 7 143754145.686 7      1389.530 7        47.818               
> 2020 12 01 09 31 22.0000000  0  5                                             
G07  28862936.754 7 151694177.784 7      3987.460 7        46.356               
G03  26221816.572 7 137806415.354 7     -1281.715 7        44.517               
G09  26312467.510 7 138291380.556 7      2383.979 7        45.232               
G22  28042147.298 7 147380852.692 7     -2146.652 7        44.819               
G06  27351966.096 7 143754006.679 7      1389.404 7        47.498               
> 2020 12 01 09 31 22.1000000  0  5                                             
G07  28862856.236 7 151693778.772 7      3988.096 7        46.324               
G03  26221836.165 7 137806543.405 7     -1280.779 7        44.406               
G09  26312417.200 7 138291142.167 7      2381.589 7        45.456               
G22  28042182.965 7 147381067.047 7     -2138.892 7        44.576               
G06  27351934.584 7 143753867.728 7      1390.471 7        47.544               
> 2020 12 01 09 31 22.2000000  0  5                                             
G07  28862774.190 7 151693379.777 7      3988.458 7        46.162               
G03  26221853.739 7 137806671.473 7     -1284.612 7        44.582               
G09  26312365.978 7 138290903.816 7      2382.069 7        45.328               
G22  28042213.503 7 147381281.449 7     -2144.206 7        43.858               
G06  27351901.696 7 143753728.786 7      1386.763 7        47.732               
> 2020 12 01 09 31 22.3000000  0  5                                             
G07  28862690.072 7 151692980.729 7      3990.600 7        45.539               
G03  26221871.894 7 137806799.538 7     -1278.397 7        44.650               
G09  26312316.240 7 138290665.610 7      2384.163 7        44.968               
G22  28042246.570 7 147381495.868 7     -2145.464 7        43.528               
G06  27351868.755 7 143753589.837 7      1389.506 7        47.625               
> 2020 12 01 09 31 22.4000000  0  5                                             
G07  28862607.044 7 151692581.662 7      3990.879 7        45.060               
G03  26221893.721 7 137806927.583 7     -1281.887 7        44.617               
G09  26312266.626 7 138290427.278 7      2383.317 7        44.865               
G22  28042283.273 7 147381710.238 7     -2144.791 7        43.726               
G06  27351838.261 7 143753450.905 7      1391.861 7        47.835               
